stop_id,stop_code,stop_name,stop_desc,stop_lat,stop_lon,zone_id,stop_url,location_type,parent_station
45,,Q St & Blackwell Dr NE,,41.205424,-96.150111,,,,
46,,Q St & Blackwell Dr SW,,41.20527,-96.150253,,,,
54,,Q St & Millard South High SW,,41.205247,-96.145889,,,,
66,,Q St & Walnut Grove Dr SW,,41.205297,-96.141121,,,,
67,,Q St & Walnut Grove Dr NE,,41.205469,-96.140811,,,,
70,,144th & Q St NE,,41.205538,-96.138594,,,,
71,,144th & Q St SW,,41.20524,-96.138974,,,,
86,,99th & Q St SW,,41.205231,-96.067699,,,,
87,,40th & Farnam NW,,41.257868,-95.973435,,,,
88,,138th & Q St SE,,41.205043,-96.129041,,,,
92,,42nd & Mason NW,,41.249644,-95.975932,,,,
94,,97th (Hy Vee Exit) & Q St SW,,41.205248,-96.063908,,,,
96,,136th (South) & Q St NE,,41.205303,-96.126098,,,,
99,,36th & Farnam SW,,41.257689,-95.966192,,,,
101,,38th Ave & Farnam NE,,41.257855,-95.970368,,,,
104,,42nd & Emile NW,,41.254308,-95.975848,,,,
109,,110th & I St SW,,41.216115,-96.084484,,,,
110,,136th (South) & Q St SW,,41.205122,-96.1263,,,,
111,,42nd & Pacific SW,,41.248717,-95.975894,,,,
115,,136th (North) & Q St NE,,41.205252,-96.121531,,,,
116,,132nd/135th & Q St NE,,41.205231,-96.119456,,,,
117,,42nd & Pierce SW,,41.247771,-95.975928,,,,
121,,132nd & Q St SW,,41.205068,-96.119634,,,,
125,,93rd & Q St SW,,41.205256,-96.056301,,,,
128,,129th & Q St NE,,41.20525,-96.115558,,,,
131,,91st & Q St SE,,41.205242,-96.054477,,,,
133,,78th & Cass SW,,41.263199,-96.037674,,,,
134,,Q St & Oaks Ln NE,,41.205268,-96.112172,,,,
138,,42nd & Dewey Ave SE,,41.255974,-95.975721,,,,
139,,Oaks Ln/ Deauville Dr & Q St SW,,41.205114,-96.112314,,,,
140,,42nd & Dewey Ave NW,,41.256118,-95.975877,,,,
148,,107th Ave & Q St SE,,41.205241,-96.079062,,,,
149,,38th & Farnam NE,,41.257857,-95.968937,,,,
152,,Turner Blvd & Farnam SW,,41.257628,-95.957946,,,,
158,,Q St & Magnolia NE,,41.20535,-96.104744,,,,
163,,27th Ave & Harney SW,,41.256563,-95.952443,,,,
165,,35th Ave & Farnam NE,,41.257807,-95.965321,,,,
170,,34th & Farnam NE,,41.257793,-95.962779,,,,
172,,26th & Harney SW,,41.256557,-95.95045,,,,
175,,25th & Harney SW,,41.256549,-95.948899,,,,
176,,108th & Decatur SW,,41.275891,-96.08145,,,,
180,,24th & Harney SW,,41.256534,-95.94699,,,,
181,,33rd & Farnam NE,,41.257776,-95.961526,,,,
186,,18th & Broadway NE,,41.261955,-95.870737,,,,
188,,24th & Harney SE,,41.256525,-95.946799,,,,
189,,32nd Ave & Frederick NW,,41.231414,-95.960476,,,,
196,,124th Ave & Q St NE,,41.205298,-96.107391,,,,
201,,42nd & Walnut SW,,41.242837,-95.975915,,,,
203,,42nd & Marcy SE,,41.25113,-95.975685,,,,
204,,122nd & Q St SW,,41.205203,-96.102478,,,,
206,,42nd & Center SW,,41.241378,-95.975947,,,,
211,,44th & Center NW,,41.241573,-95.978262,,,,
213,,102nd & Seward SE,,41.273221,-96.0717,,,,
215,,80th & Templeton Dr NE,,41.301793,-96.036373,,,,
216,,120th & P St NW,,41.206882,-96.100697,,,,
219,,120th & Ohern NW,,41.208043,-96.100726,,,,
223,,120th & Ohern SE,,41.207864,-96.100534,,,,
226,,87th Ave & Templeton Dr NW,,41.305075,-96.04743,,,,
229,,81st & Templeton Dr NE,,41.301797,-96.03875,,,,
235,,83rd & Templeton Dr NE,,41.301792,-96.041174,,,,
240,,90th & J St SW,,41.214087,-96.052745,,,,
243,,Q St & John Galt Blvd NE,,41.205437,-96.087563,,,,
246,,47th & Center SW,,41.241438,-95.984322,,,,
263,,108th & Q St NW,,41.205505,-96.081626,,,,
264,,50th & Bedford NE,,41.288755,-95.9902,,,,
266,,108th & Q St SE,,41.20521,-96.0811,,,,
269,,84th & Lakeview Dr NW,,41.20902,-96.043127,,,,
273,,49th & Center SW,,41.241451,-95.987925,,,,
274,,84th & L St SW,,41.212342,-96.043091,,,,
277,,107th (North) & Q St NE,,41.205395,-96.078728,,,,
282,,112th & I St SW,,41.216181,-96.086905,,,,
285,,Templeton Dr & Grand Ave SE,,41.303458,-96.045836,,,,
286,,108th & O St NW,,41.209053,-96.081533,,,,
288,,85th/84th & Templeton Dr NE,,41.30231,-96.043253,,,,
289,,108th & Manderson Plz NW,,41.292935,-96.081544,,,,
300,,110th & I St SW,,41.216142,-96.084436,,,,
309,,26th Ave & Dodge NE,,41.259807,-95.950696,,,,
314,,16th & Farnam SE,,41.257517,-95.9371,,,,
325,,120th & W Center NW,,41.23411,-96.100936,,,,
329,,Minne Lusa Blvd & Titus Ave NE,,41.320745,-95.951744,,,,
334,,119th & W Center SW,,41.233963,-96.098383,,,,
340,,117th & W Center SW,,41.233987,-96.095997,,,,
354,,19th & Farnam NE,,41.257675,-95.941038,,,,
356,,132nd & W Center NW,,41.23417,-96.119616,,,,
357,,20th & Farnam NW,,41.257673,-95.942554,,,,
359,,Oakview Park & Ride SE,,41.231548,-96.136433,,,,
360,,16th & Dodge SW,,41.259651,-95.937236,,,,
361,,114th & W Center NW,,41.234179,-96.091286,,,,
367,,22nd & Farnam MB,,41.257707,-95.944642,,,,
373,,24th & Farnam SE,,41.257542,-95.946801,,,,
377,,138th & W Center NW,,41.234067,-96.127416,,,,
380,,25th & Farnam NW,,41.257703,-95.948174,,,,
381,,138th & W Center SE,,41.233951,-96.127177,,,,
386,,20th & Harney SW,,41.256512,-95.94236,,,,
389,,108th & M St NW,,41.211268,-96.081554,,,,
399,,135th Ave & W Center NE,,41.234094,-96.124398,,,,
400,,11th & Farnam NW,,41.257695,-95.930669,,,,
401,,26th Ave & Farnam NE,,41.257736,-95.950704,,,,
405,,37th & Lake SW,,41.281313,-95.968193,,,,
409,,48th & Bedford Ave NE,,41.288771,-95.985365,,,,
410,,117th & W Center NE,,41.23415,-96.095807,,,,
414,,12th & Harney SW,,41.256433,-95.931991,,,,
418,,14th & Harney SE,,41.256476,-95.934437,,,,
420,,134th Ave & W Center SE,,41.233973,-96.122358,,,,
423,,130th Ave & W Center SE,,41.234013,-96.117372,,,,
424,,120th & W Center SW,,41.233998,-96.102486,,,,
428,,129th Ave & W Center SW,,41.233993,-96.114712,,,,
429,,122nd Ave & W Center SW,,41.233984,-96.10455,,,,
430,,129th Ave & W Center NE,,41.234129,-96.114451,,,,
433,,124th & W Center NE,,41.23412,-96.107401,,,,
450,,105th & W Center SW,,41.234182,-96.074623,,,,
453,,125th Ave & W Center SE,,41.233971,-96.109297,,,,
454,,102nd & W Center NE,,41.234331,-96.072238,,,,
456,,124th & W Center SW,,41.233967,-96.107603,,,,
457,,100th & W Center NW,,41.234338,-96.069017,,,,
462,,99th Ave & W Center NE,,41.23436,-96.067371,,,,
508,,Westwood Ln & W Center NW,,41.234156,-96.093207,,,,
509,,Paddock & W Center SW,,41.233435,-96.057909,,,,
510,,72nd & Western Ave NE,,41.270618,-96.023771,,,,
515,,49th & Bedford Ave NE,,41.288722,-95.987705,,,,
519,,108th & W Center NE,,41.234301,-96.081351,,,,
520,,107th & W Center SW,,41.234135,-96.079406,,,,
523,,107th & W Center NE,,41.234306,-96.079263,,,,
528,,72nd & Hamilton NW,,41.272409,-96.023908,,,,
530,,88th & W Center Rd NW,,41.234368,-96.051077,,,,
543,,Westwood Ln & W Center SW,,41.234003,-96.093158,,,,
554,,13th & Martha SE,,41.238109,-95.933198,,,,
557,,46th & Ames Ave SW,,41.299463,-95.982337,,,,
558,,16th & Douglas SE,,41.258562,-95.937066,,,,
559,,41st & Ames Ave SE,,41.299483,-95.974481,,,,
560,,72nd & Pinkney SE,,41.290435,-96.023871,,,,
561,,13th & Castelar SE,,41.236866,-95.933208,,,,
564,,66th & Ames Ave NE,,41.299601,-96.014169,,,,
566,,48th & Ames Ave NE,,41.299675,-95.985382,,,,
569,,72nd & Bedford Ave NE,,41.288752,-96.023818,,,,
572,,72nd & Ames Ave NE,,41.299845,-96.02377,,,,
576,,49th & Ames Ave NE,,41.299672,-95.987137,,,,
580,,19th & Dodge NW,,41.259827,-95.941341,,,,
581,,13th & Dorcas SE,,41.239405,-95.933237,,,,
582,,73rd & Blondo NE,,41.277881,-96.025657,,,,
584,,72nd & Sprague SE,,41.29591,-96.023757,,,,
588,,Fontenelle Blvd & Ames Ave NE,,41.299594,-95.97934,,,,
589,,17th & Douglas SW,,41.258578,-95.938594,,,,
590,,42nd & Ames Ave SW,,41.299463,-95.975925,,,,
591,,72nd & Pratt NW,,41.292362,-96.023985,,,,
599,,72nd & Spaulding SE,,41.294064,-96.023787,,,,
600,,13th & Leavenworth SE,,41.252227,-95.933141,,,,
601,,117th Ave & Grant NW,,41.280056,-96.098035,,,,
606,,19th & Douglas SW,,41.258584,-95.941243,,,,
607,,13th & Jones SE,,41.253272,-95.933131,,,,
610,,65th & Ames Ave NE,,41.29956,-96.01165,,,,
619,,63rd & Ames Ave SW,,41.299456,-96.009524,,,,
621,,Robertson Dr & Blondo NW,,41.277863,-96.039407,,,,
624,,37th & Ames Ave NE,,41.299672,-95.968439,,,,
626,,52nd & Ames Ave NE,,41.299678,-95.994922,,,,
629,,109th Ct & Mill Valley NW,,41.267371,-96.086117,,,,
636,,51st (Bakers) & Ames Ave NW,,41.299681,-95.992797,,,,
637,,13th & Howard SE,,41.255388,-95.933099,,,,
648,,20th & Davenport SW,,41.260636,-95.942524,,,,
656,,Benson Gardens Blvd & Blondo NE,,41.277858,-96.037306,,,,
658,,120th & Stonegate NW,,41.286739,-96.100702,,,,
667,,20th & Chicago SW,,41.262635,-95.942563,,,,
668,,50th & Ames Ave NE,,41.299694,-95.990146,,,,
674,,61st & Ames Ave SW,,41.299442,-96.007184,,,,
678,,117th Ave & Miami SW,,41.282882,-96.09862,,,,
683,,33rd & Ames Ave NW,,41.299636,-95.96149,,,,
686,,13th & Pacific NW,,41.249238,-95.933374,,,,
687,,Benson Gardens Blvd & Blondo SW,,41.277705,-96.037568,,,,
689,,72nd & Maple NE,,41.285186,-96.023675,,,,
690,,37th & Ames Ave SE,,41.299438,-95.968403,,,,
693,,54th & Ames Ave NE,,41.299647,-95.997203,,,,
694,,20th & Cuming NW,,41.268037,-95.942491,,,,
696,,72nd & Grant SE,,41.27955,-96.023788,,,,
698,,13tlh & Pierce SE,,41.248031,-95.933181,,,,
699,,Cole Creek Dr & Blondo NE,,41.277853,-96.035301,,,,
702,,36th & Ames Ave NE,,41.299648,-95.966051,,,,
703,,55th & Ames Ave NW,,41.299609,-95.998456,,,,
704,,20th & Nicholas NW,,41.270063,-95.942483,,,,
705,,31st Ave & Ames Ave NW,,41.299639,-95.959234,,,,
706,,72nd & Decatur NW,,41.275696,-96.023907,,,,
707,,Robertson Dr & Blondo SW,,41.277701,-96.039335,,,,
710,,38th & Ames Ave NE,,41.299616,-95.969681,,,,
714,,56th & Ames Ave NW,,41.299607,-96.00008,,,,
715,,20th & Paul NW,,41.271783,-95.942474,,,,
718,,83rd & Blondo NE,,41.277867,-96.042057,,,,
723,,72nd & Ohio SE,,41.282566,-96.023822,,,,
724,,54th & Ames Ave SE,,41.299512,-95.997202,,,,
728,,13th & William SE,,41.245537,-95.933212,,,,
729,,78th & Blondo NW,,41.277866,-96.033344,,,,
731,,36th & Ames Ave SW,,41.299441,-95.966278,,,,
736,,34th Ave & Ames Ave NE,,41.299624,-95.963735,,,,
741,,Florence Blvd & Chicago SE,,41.262636,-95.941012,,,,
742,,13th & Hickory SE,,41.242764,-95.933195,,,,
745,,33rd & Ames Ave SW,,41.299465,-95.961454,,,,
748,,13th St & Douglas SE,,41.258611,-95.933129,,,,
749,,19th & Capitol Ave SE,,41.260574,-95.940984,,,,
750,,13th & Center SE,,41.241305,-95.933192,,,,
751,,74th & Blondo SW,,41.277716,-96.027172,,,,
756,,22nd & Ames Ave NE,,41.299702,-95.94444,,,,
757,,Florence Blvd & Miami SW,,41.283263,-95.942294,,,,
758,,65th & Ames Ave SW,,41.29947,-96.011733,,,,
759,,46th & Ames Ave NE,,41.299617,-95.982123,,,,
760,,Florence Blvd & Emmet NW,,41.289728,-95.942283,,,,
763,,13th & B St NW,,41.225206,-95.933389,,,,
771,,48th & Ames Ave SW,,41.29953,-95.985513,,,,
772,,Florence Blvd & Pinkney SE,,41.290493,-95.94207,,,,
776,,65th & Sorensen Pkwy NE,,41.317756,-96.012159,,,,
781,,20th & Lake NW,,41.281588,-95.942303,,,,
785,,100th & Blondo SW,,41.277757,-96.068495,,,,
787,,13th & C St SW,,41.222802,-95.933385,,,,
788,,60th & P St SW,,41.206758,-96.004679,,,,
790,,61st & Ames Ave NE,,41.299568,-96.006993,,,,
791,,20th & Burdette NW,,41.278869,-95.942393,,,,
793,,108th & Charles Plz SE,,41.273154,-96.081236,,,,
796,,87th St & Blondo St,,41.277716,-96.050077,,,,
802,,63rd & Ames Ave NE,,41.299573,-96.009381,,,,
804,,20th & Charles NW,,41.273268,-95.942453,,,,
809,,13th & Atlas SE,,41.221955,-95.933276,,,,
810,,24th & L St SW,,41.21227,-95.947138,,,,
821,,20th & Willis Ave NW,,41.28067,-95.942337,,,,
822,,20th & Clark NW,,41.27533,-95.942433,,,,
825,,72nd & Western Ave NW,,41.270572,-96.02395,,,,
828,,13th & Bert Murphy Ave NE,,41.223684,-95.933279,,,,
829,,13th & Vinton SE,,41.234912,-95.933264,,,,
830,,90th & Blondo NW,,41.277881,-96.052716,,,,
831,,Keystone Dr & Blondo NW,,41.27789,-96.044193,,,,
838,,Florence Blvd & Sahler SE,,41.297319,-95.942047,,,,
842,,23rd & L St SW,,41.21219,-95.945599,,,,
846,,60th & N St NW,,41.21009,-96.004725,,,,
849,,72nd & Webster SW,,41.265593,-96.023982,,,,
850,,Fontenelle Blvd & Browne SE,,41.304881,-95.977921,,,,
853,,20th & Grace NW,,41.27696,-95.942413,,,,
858,,85th & Blondo SW,,41.277712,-96.047678,,,,
869,,24th & Saratoga NW,,41.303895,-95.94704,,,,
874,,Fontenelle Blvd & Ames Ave SW,,41.299449,-95.979662,,,,
875,,Florence Blvd & Spencer NW,,41.287927,-95.942279,,,,
878,,13th & Spring Lake Dr NW,,41.214761,-95.933382,,,,
881,,35th & Broadway NE,,41.261935,-95.901977,,,,
886,,66th & Ames Ave SW,,41.299474,-96.01436,,,,
889,,96th & Blondo SW,,41.277699,-96.062252,,,,
895,,Fontenelle Blvd & Jaynes 1,,41.308665,-95.969703,,,,
897,,Florence Blvd & Manderson NW,,41.29342,-95.942266,,,,
899,,72nd & Ames Ave SE,,41.299458,-96.023697,,,,
901,,Newport Ave & Sorensen Pkwy NE,,41.317991,-96.016925,,,,
903,,24th & Laurel Ave NW,,41.31234,-95.947009,,,,
905,,Florence Blvd & Sprague SE,,41.295941,-95.942045,,,,
907,,24th & Himebaugh Ave NW,,41.311278,-95.947031,,,,
910,,Florence Blvd & Laird SE,,41.29468,-95.942054,,,,
915,,24th & Grand Ave SE,,41.303184,-95.946835,,,,
918,,Florence Blvd & Wirt SE,,41.286892,-95.942074,,,,
925,,Florence Blvd & Binney SW,,41.285901,-95.942275,,,,
931,,16th & Harney SW,,41.256482,-95.937289,,,,
936,,83rd & Blondo SE,,41.277723,-96.042092,,,,
940,,Davenport & S Frontage Rd SW,,41.262137,-96.087121,,,,
941,,13th & Martha NW,,41.238271,-95.933413,,,,
946,,30th & Grebe NW,,41.334393,-95.959957,,,,
948,,16th & Farnam NW,,41.257724,-95.93728,,,,
953,,Florence Blvd & Locust SE,,41.285064,-95.942083,,,,
954,,Metro College Transit Center,,41.206604,-95.955806,,,,
956,,Crosswalk & Newport (Immanuel) SW,,41.320101,-96.020336,,,,
962,,98th Ave & Blondo SE,,41.277754,-96.066,,,,
968,,Taylor & Ames Ave SE,,41.299575,-96.002982,,,,
976,,20thd & Grace SE,,41.276816,-95.942222,,,,
980,,62nd Ave & Sorensen Pkwy NE,,41.317692,-96.007429,,,,
995,,20th & Willis Ave SE,,41.280553,-95.942157,,,,
998,,30th & State NW,,41.336301,-95.96051,,,,
1002,,13th & Center NW,,41.24144,-95.933407,,,,
1005,,85th & Blondo SE,,41.277721,-96.047475,,,,
1012,,60th & Grand Ave SE,,41.303039,-96.004544,,,,
1017,,108th & Mill Valley Rd NE,,41.266424,-96.082867,,,,
1020,,60th & Fowler Ave SE,,41.301247,-96.004563,,,,
1022,,120th & Emmet SE,,41.29062,-96.1006,,,,
1028,,114th Ave & W Maple Rd NE,,41.290227,-96.092265,,,,
1029,,114th Ave & W Maple Rd SW,,41.2901,-96.092527,,,,
1030,,W Maple Rd & Emmet NE,,41.289032,-96.087377,,,,
1031,,W Maple Rd & Emmet SW,,41.288923,-96.087675,,,,
1032,,43rd Ave & Cuming NE,,41.268082,-95.977983,,,,
1035,,108th & Bedford Ave SE,,41.288677,-96.081299,,,,
1036,,45th & Cuming NE,,41.268033,-95.980215,,,,
1037,,102nd & Seward NW,,41.27341,-96.071915,,,,
1039,,108th & Ogden Plz NW,,41.3079,-96.081545,,,,
1042,,108th & Emmet SE,,41.289703,-96.081339,,,,
1043,,108th & Emmet NW,,41.289838,-96.081531,,,,
1045,,66th & Maple SW,,41.284933,-96.014459,,,,
1047,,108th & Fort SE,,41.306568,-96.081301,,,,
1048,,Fort & North Oaks Blvd NE,,41.306811,-96.061276,,,,
1052,,NW Radial Hwy & Nicholas NW,,41.270064,-95.982941,,,,
1053,,102nd & Military Rd NW,,41.313979,-96.072972,,,,
1054,,108th & Manderson Plz NE,,41.292909,-96.081341,,,,
1055,,NW Radial Hwy & Hamilton SE,,41.272153,-95.98334,,,,
1057,,107th & Military Rd SE,,41.313864,-96.08028,,,,
1061,,108th & Old Maple Rd SE,,41.29434,-96.081323,,,,
1062,,108th & Old Maple Rd NW,,41.294529,-96.081538,,,,
1066,,108th & Grande Ave NW,,41.304145,-96.08153,,,,
1067,,104th & Q St NE,,41.205405,-96.074353,,,,
1068,,32nd & Cuming MB,,41.267899,-95.960129,,,,
1071,,NW Radial Hwy & Seward NW,,41.274241,-95.983573,,,,
1074,,108th & Boyd SE,,41.297627,-96.081312,,,,
1075,,108th & Fowler Ave SE,,41.301138,-96.081315,,,,
1076,,105th & Military Rd SW,,41.313807,-96.077366,,,,
1077,,33rd & Cuming SE,,41.267879,-95.961311,,,,
1078,,108th & Taylor NW,,41.299202,-96.081545,,,,
1082,,NW Radial Hwy & Decatur NW,,41.276348,-95.983638,,,,
1086,,108th & Fowler Ave SW,,41.301165,-96.08153,,,,
1088,,34th & Cuming SW,,41.267832,-95.963292,,,,
1091,,Templeton Dr & Fort NW,,41.306803,-96.047866,,,,
1092,,78th/Templeton Dr & Military Ave SE,,41.302546,-96.033391,,,,
1093,,38th & Cuming SW,,41.267869,-95.969342,,,,
1094,,108th & Grand Ave NE,,41.304254,-96.081327,,,,
1100,,NW Radial Hwy & Burdette NW,,41.27877,-95.983561,,,,
1102,,Regency Pw & Regency Ramp MB,,41.262137,-96.067658,,,,
1104,,40th & Cuming NW,,41.268215,-95.973019,,,,
1107,,Military Ave & Keystone Dr NE,,41.299559,-96.027459,,,,
1112,,Military Ave & Aurora Dr NE,,41.300743,-96.029695,,,,
1113,,48th & NW Radial Hwy NE,,41.28155,-95.985251,,,,
1119,,67th Ave & Military Ave NE,,41.293852,-96.016575,,,,
1120,,65th & Maple SW,,41.284919,-96.012083,,,,
1121,,42nd & Cuming SW,,41.26785,-95.976348,,,,
1122,,106th & Fort NE,,41.306745,-96.078711,,,,
1123,,105th & Fort SW,,41.306513,-96.07773,,,,
1130,,91st  Ave & Fort SW,,41.306599,-96.054935,,,,
1132,,70th Ave & Military Ave NE,,41.296392,-96.021395,,,,
1144,,102nd Ave & 102nd NW,,41.27576,-96.07196,,,,
1145,,50th & Center NE,,41.241601,-95.99012,,,,
1147,,42nd & Mason SE,,41.249852,-95.975718,,,,
1149,,50th & Center SW,,41.241429,-95.990323,,,,
1151,,42nd & Pacific SE,,41.248717,-95.975667,,,,
1153,,98th Plz & Q St SW,,41.205253,-96.065947,,,,
1159,,51st (Saddle Creek) & Center NE,,41.24139,-95.992279,,,,
1162,,St. Gerald's Park & Ride Lot NW,,41.205466,-96.063098,,,,
1164,,84th & Papillion Pkwy NW,,41.22646,-96.043237,,,,
1167,,96th & Park Dr NE,,41.203254,-96.061861,,,,
1172,,42nd & William NW,,41.246097,-95.975888,,,,
1173,,96th & Q St SE,,41.205235,-96.061881,,,,
1211,,55th & Center NE,,41.239175,-95.997879,,,,
1214,,42nd & Woolworth Ave NE,,41.245359,-95.975635,,,,
1215,,93rd & Q St NE,,41.205409,-96.056135,,,,
1217,,84th & Spring NW,,41.231467,-96.043206,,,,
1218,,42nd & Pine SW,,41.244314,-95.975871,,,,
1219,,91st & Q St NE,,41.205403,-96.054573,,,,
1220,,56th & Center NE,,41.238056,-95.999797,,,,
1221,,84th & Tangier Way NW,,41.232538,-96.043186,,,,
1224,,60th & Center SW,,41.237786,-96.004842,,,,
1228,,89th St & Q St SW,,41.205248,-96.051365,,,,
1229,,61st Ave & Center NE,,41.237944,-96.007073,,,,
1230,,Ridgewood Ave & W Center NE,,41.234361,-96.041356,,,,
1232,,87th St & Q St SE,,41.205273,-96.048122,,,,
1233,,61st Ave & Center SW,,41.237845,-96.00718,,,,
1234,,80th Ave & W Center NE,,41.234366,-96.03872,,,,
1236,,86th Pkwy & Q St NE,,41.205395,-96.04544,,,,
1238,,80th & W Center NE,,41.234362,-96.036203,,,,
1239,,44th & Center SW,,41.241465,-95.97831,,,,
1243,,72nd & F St NW,,41.219771,-96.024001,,,,
1249,,Fontenelle Blvd & Browne NW,,41.305034,-95.978124,,,,
1252,,67th & L St NE,,41.212547,-96.015464,,,,
1253,,62nd & L St SW,,41.212432,-96.009513,,,,
1266,,Washington & Centennial Rd SE,,41.168798,-96.042915,,,,
1267,,Washington & Centennial Rd NW,,41.168969,-96.043142,,,,
1273,,84th & Brentwood Dr NW,,41.179954,-96.043145,,,,
1275,,84th & Summer Dr SE,,41.183277,-96.042918,,,,
1279,,24th & Redick Ave SE,,41.317518,-95.946817,,,,
1280,,84th & Park View Blvd SW,,41.187581,-96.043088,,,,
1286,,84th & Harrison SE,,41.190274,-96.042847,,,,
1294,,84th & Madison SE,,41.195649,-96.042878,,,,
1295,,84th & Madison NW,,41.195775,-96.043081,,,,
1296,,84th & K St SW,,41.214215,-96.043158,,,,
1297,,84th & Park Dr NW,,41.200853,-96.043182,,,,
1301,,78th & W Center NE,,41.234439,-96.0334,,,,
1304,,84th & Summer Dr NW,,41.18352,-96.043121,,,,
1333,,64th Ave & Center NE,,41.237981,-96.011857,,,,
1334,,Mercy Rd Entrance SW,,41.237827,-96.032099,,,,
1335,,84th & Lakeview Dr SE,,41.208876,-96.042912,,,,
1337,,85th & Seward NW,,41.274238,-96.046544,,,,
1339,,Morton Ave (47th) & Center NE,,41.241601,-95.984108,,,,
1340,,84th & L St NE,,41.212694,-96.042938,,,,
1341,,48th & Center SW,,41.241464,-95.985491,,,,
1343,,73rd & Mercy Rd SE,,41.237858,-96.025515,,,,
1345,,49th & Center NE,,41.241613,-95.98771,,,,
1346,,84th & J St SE,,41.215323,-96.04303,,,,
1350,,84th & I St NW,,41.216502,-96.043201,,,,
1351,,75th & Mercy Rd SW,,41.237825,-96.028819,,,,
1353,,84th & G St SW,,41.218123,-96.043195,,,,
1354,,61st & L St SW,,41.212445,-96.007069,,,,
1355,,51st Ave & Center NE,,41.241208,-95.993853,,,,
1361,,54th & L St NW,,41.212586,-95.997649,,,,
1362,,40th & Fowler Ave NE,,41.301477,-95.972074,,,,
1366,,72nd & J St SE,,41.214973,-96.023747,,,,
1368,,13th & 13th Ct NW,,41.232499,-95.933427,,,,
1373,,42nd & Grover NW,,41.227134,-95.975984,,,,
1375,,13th & B St SE,,41.225098,-95.933294,,,,
1377,,67th & L St SW,,41.212457,-96.015583,,,,
1380,,49th & L St SW,,41.212493,-95.988467,,,,
1381,,38th & Ames Ave SE,,41.299481,-95.969657,,,,
1382,,50th & L St SW,,41.212498,-95.99084,,,,
1386,,8th & Broadway SE,,41.26153,-95.854722,,,,
1400,,84th & W Center NE,,41.234367,-96.04299,,,,
1403,,Westroads Entr 8 & 98th NW,,41.266077,-96.065275,,,,
1412,,102nd & W Center SE,,41.234187,-96.072285,,,,
1416,,96th & W Center SW,,41.233741,-96.062299,,,,
1429,,13th & J St SE,,41.214635,-95.933274,,,,
1430,,117th Ave & Grant SE,,41.27984,-96.097867,,,,
1431,,13th & Mid City Ave SE,,41.219614,-95.933284,,,,
1435,,39th & L St SW,,41.212544,-95.971809,,,,
1436,,72nd & Wirt NW,,41.286951,-96.024003,,,,
1438,,34th Ave & Ames Ave SW,,41.299453,-95.96389,,,,
1441,,117th Ave & Blondo NE,,41.277886,-96.098025,,,,
1449,,15th & Missouri Ave SW,,41.212922,-95.935716,,,,
1458,,30th & L St SE,,41.21223,-95.957714,,,,
1462,,56th Plz & L St SE,,41.212457,-95.999795,,,,
1463,,72nd & Bedford Ave NW,,41.28876,-96.024009,,,,
1466,,13th & I St SE,,41.216031,-95.933265,,,,
1470,,93rd & Maple SE,,41.284979,-96.055678,,,,
1474,,Papillion Pkwy & Blondo SW,,41.277704,-96.091472,,,,
1509,,117th Ave & Miami NW,,41.282944,-96.098799,,,,
1510,,25th & L St NE,,41.212322,-95.948485,,,,
1511,,27th & Babe Gomez Ave SW,,41.206311,-95.953087,,,,
1513,,37th & Curtis Ave SW,,41.315663,-95.968573,,,,
1514,,70th Ave & Military Ave SW,,41.296337,-96.021538,,,,
1525,,33rd & Blondo NW,,41.277432,-95.961595,,,,
1532,,70th Ave & Maple NE,,41.285119,-96.021407,,,,
1534,,30th & Ames Ave SE,,41.299507,-95.956487,,,,
1539,,72nd & Pinkney NW,,41.290552,-96.024015,,,,
1541,,Florence Blvd & Pratt SE,,41.292222,-95.942037,,,,
1542,,26th & Ames Ave NE,,41.299695,-95.95047,,,,
1544,,111th & Blondo NE,,41.277889,-96.085445,,,,
1555,,72nd & Spaulding NW,,41.294208,-96.023979,,,,
1556,,Florence Blvd & Sprague NW,,41.296076,-95.94226,,,,
1559,,Florence Blvd & Laird SW,,41.294536,-95.942257,,,,
1563,,108th & Blondo SE,,41.277747,-96.081063,,,,
1566,,13th & Kavan NW,,41.22146,-95.93337,,,,
1579,,72nd & Pratt SE,,41.292254,-96.023817,,,,
1580,,40th & Ames Ave NW,,41.299702,-95.972368,,,,
1583,,106th & Blondo SE,,41.277734,-96.07864,,,,
1587,,56th & Northampton Blvd NW,,41.315544,-96.000186,,,,
1592,,52nd & NW Radial Hwy SW,,41.284479,-95.99525,,,,
1593,,72nd & Military Ave SE,,41.296992,-96.022853,,,,
1600,,93rd & Fort NE,,41.306784,-96.057288,,,,
1601,,49th & NW Radial Hwy SW,,41.281366,-95.987924,,,,
1604,,Florence Blvd & Manderson SE,,41.29324,-95.942075,,,,
1605,,Florence Blvd & Pratt NW,,41.292357,-95.942252,,,,
1606,,20th & Missouri Ave SW,,41.212906,-95.941833,,,,
1607,,24th & L St NE,,41.212315,-95.946959,,,,
1608,,56th & Sorensen Pkwy SW,,41.31757,-95.999857,,,,
1609,,50th & L St NW,,41.212615,-95.990996,,,,
1610,,24th & Redick Ave SW,,41.317455,-95.946996,,,,
1612,,22nd & Ames Ave SE,,41.299567,-95.944488,,,,
1617,,10th & Douglas SE,,41.258543,-95.929107,,,,
1618,,96th & W Dodge Rd NE,,41.263482,-96.061995,,,,
1619,,16th & Howard NW,,41.255545,-95.937299,,,,
1621,,16th & Davenport NW,,41.261695,-95.937251,,,,
1628,,30th & Livestock Ex. Bldg SE,,41.209712,-95.955026,,,,
1637,,24th & Sahler NE,,41.297142,-95.946859,,,,
1638,,97th Ave & Fort SW,,41.306589,-96.064046,,,,
1640,,NW Radial Hwy & Izard NW,,41.269083,-95.982616,,,,
1642,,102nd & Ohio NW,,41.281937,-96.07183,,,,
1644,,Florence Blvd & Pinkney NW,,41.290637,-95.942273,,,,
1645,,18th & Missouri Ave SW,,41.212918,-95.939353,,,,
1646,,N Mill & Mill Valley SW,,41.269082,-96.086219,,,,
1650,,24th & Kansas Ave SE,,41.313853,-95.946809,,,,
1658,,91st  Ave & Fort NE,,41.306807,-96.054685,,,,
1659,,48th & NW Radial Hwy SW,,41.281387,-95.985513,,,,
1661,,24th & Miller Park Dr NW,,41.315807,-95.946981,,,,
1671,,Fontenelle Blvd & Fort SW,,41.306655,-95.977854,,,,
1673,,51st/Miami & NW Radial Hwy NW,,41.283348,-95.993051,,,,
1681,,96th & W Dodge Rd SE,,41.263302,-96.061899,,,,
1682,,96th & Burt NE,,41.267075,-96.061901,,,,
1684,,96th & Nicholas NW,,41.269658,-96.062472,,,,
1691,,54th & NW Radial Hwy NE,,41.285097,-95.997377,,,,
1692,,72nd & Mercy Rd NE,,41.238014,-96.023869,,,,
1697,,Military Ave & Keystone Dr SE,,41.299486,-96.027614,,,,
1702,,56th & NW Radial Hwy NE,,41.285084,-95.999716,,,,
1703,,Military Ave & Aurora Dr SW,,41.300725,-96.029994,,,,
1704,,97th Ave & Fort NE,,41.306751,-96.063832,,,,
1725,,Military Ave & Pinkney SE,,41.290386,-96.011061,,,,
1730,,65th Ave & Military Ave NE,,41.291518,-96.012748,,,,
1731,,102nd Ave & 102nd SE,,41.275544,-96.071661,,,,
1735,,63rd & Maple SW,,41.284914,-96.009684,,,,
1737,,102nd & Maple SW,,41.284854,-96.071865,,,,
1742,,101st & Maple SE,,41.285029,-96.069848,,,,
1749,,98th Ave & Blondo SE,,41.277736,-96.066036,,,,
1753,,108th & Bedford Ave NW,,41.288794,-96.081515,,,,
1755,,99th & Maple SW,,41.284988,-96.068272,,,,
1757,,Maplewood Blvd & Maple NE,,41.285145,-96.066638,,,,
1759,,97th & Maple NE,,41.285141,-96.064358,,,,
1761,,96th Dr & Maple SW,,41.28498,-96.063676,,,,
1763,,25th Ave & Douglas St NW,,41.258783,-95.948307,,,,
1769,,26th Ave & Douglas SW,,41.258654,-95.950849,,,,
1771,,93rd & W Dodge Rd SW,,41.263276,-96.0574,,,,
1776,,42nd & Fowler Ave NW,,41.301444,-95.975894,,,,
1778,,Dodge & Turner Blvd NW,,41.259871,-95.957402,,,,
1780,,91st Plz & Burt NW,,41.267063,-96.055039,,,,
1782,,28th & Douglas SE,,41.258688,-95.952901,,,,
1783,,33rd & Dodge SW,,41.259658,-95.961674,,,,
1784,,90th & W Dodge Rd NW,,41.263439,-96.052746,,,,
1787,,30th & Chicago NW,,41.262663,-95.956669,,,,
1790,,90th & Cuming MB,,41.268913,-96.052635,,,,
1791,,42nd & Browne NW,,41.305037,-95.975903,,,,
1792,,90th & Western Ave SE,,41.270444,-96.05245,,,,
1801,,33rd & Dodge NE,,41.259802,-95.961543,,,,
1806,,Park Ave & Douglas SW,,41.258666,-95.955932,,,,
1810,,31st Ave & Dodge SE,,41.259671,-95.958464,,,,
1811,,35th Ave & Dodge NE,,41.259788,-95.965337,,,,
1812,,87th & W Dodge Rd MB,,41.263054,-96.047244,,,,
1813,,100th & Blondo SE,,41.277731,-96.068268,,,,
1820,,103rd Ave & Blondo SW,,41.277707,-96.074797,,,,
1822,,95th Ave & Maple SE,,41.285015,-96.05994,,,,
1823,,94th Ave & Maple NW,,41.285134,-96.059045,,,,
1827,,25th Ave & Cuming SE,,41.267867,-95.949269,,,,
1829,,93rd & Fort SW,,41.306603,-96.057514,,,,
1833,,90th & Meadow Dr NW,,41.272641,-96.052685,,,,
1836,,90th & Franklin SE,,41.275,-96.052502,,,,
1840,,90th & Parker NW,,41.276918,-96.052688,,,,
1843,,103rd Ave & Blondo SW,,41.277698,-96.074785,,,,
1844,,106th & Blondo SW,,41.277707,-96.078915,,,,
1849,,42nd & Himebaugh Ave SE,,41.311151,-95.97562,,,,
1850,,90th & Grant NE,,41.279737,-96.05252,,,,
1851,,90th & Grant NW,,41.2797,-96.052722,,,,
1853,,90th & Ohio NW,,41.281933,-96.052719,,,,
1854,,90th & Ohio/Lake SE,,41.281789,-96.052503,,,,
1856,,90th & Miami NE,,41.283347,-96.052509,,,,
1857,,90th & Miami MB,,41.283851,-96.05269,,,,
1858,,90th & Maple NW,,41.285264,-96.053065,,,,
1861,,42nd & Kansas Ave SE,,41.313906,-95.975663,,,,
1863,,90th & Maple SE,,41.284905,-96.052372,,,,
1871,,Keystone Dr & Maple NE,,41.285142,-96.046678,,,,
1872,,Keystone Dr & Maple SW,,41.284988,-96.046988,,,,
1873,,32nd & Cuming NE,,41.268052,-95.960225,,,,
1874,,85th & Maple SW,,41.284975,-96.04472,,,,
1875,,85th & Maple NE,,41.285146,-96.044518,,,,
1876,,33rd & Cuming NW,,41.268077,-95.961693,,,,
1877,,52nd & Center SE,,41.240791,-95.995033,,,,
1878,,84th & Papillion Pkwy SE,,41.226245,-96.043021,,,,
1883,,55th & Center SW,,41.238896,-95.998034,,,,
1884,,84th & Hascal St SE,,41.230171,-96.042987,,,,
1889,,56th & Center SW,,41.237884,-95.999999,,,,
1890,,84th & Spring SE,,41.231341,-96.042979,,,,
1891,,58th & Center NE,,41.237952,-96.002683,,,,
1892,,84th & Tangier Way SE,,41.232332,-96.042983,,,,
1894,,84th & W Center Rd SW,,41.234195,-96.04318,,,,
1898,,80th Ave & W Center SW,,41.234185,-96.038934,,,,
1912,,63rd & Center SW,,41.237832,-96.009649,,,,
1913,,78th & W Center NW,,41.234367,-96.033591,,,,
1915,,63rd & Center NE,,41.237967,-96.009495,,,,
1918,,72nd & Spring SW,,41.230603,-96.023893,,,,
1919,,13th & Hickory NW,,41.242944,-95.933398,,,,
1921,,64th Ave & Center SW,,41.23781,-96.012059,,,,
1922,,40th & Leavenworth SW,,41.252331,-95.973433,,,,
1925,,36th & Leavenworth NE,,41.252449,-95.966072,,,,
1928,,35th & Leavenworth SE,,41.252335,-95.963697,,,,
1930,,35th & Leavenworth NE,,41.252461,-95.96371,,,,
1936,,38th & Leavenworth SW,,41.252301,-95.969138,,,,
1940,,38th Ave & Leavenworth SW,,41.252335,-95.970534,,,,
1942,,72nd St & Arbor St.SE,,41.236159,-96.023863,,,,
1946,,33rd & Leavenworth NE,,41.252464,-95.961323,,,,
1953,,31st & St Marys Ave NE,,41.253,-95.957757,,,,
1955,,Park Ave & Leavenworth SW,,41.252354,-95.955918,,,,
1958,,29th & Leavenworth SW,,41.252338,-95.954582,,,,
1966,,13th & Bancroft SE,,41.234093,-95.933263,,,,
1969,,13th & Vinton NW,,41.235011,-95.933419,,,,
1970,,72nd & Hascall NW,,41.228884,-96.023959,,,,
1972,,72nd & Spring SE,,41.230613,-96.023821,,,,
1975,,72nd & J St NW,,41.215152,-96.023903,,,,
1979,,72nd St & Hascall St  SE,,41.228803,-96.023804,,,,
1980,,13th & Pacific SE,,41.249085,-95.933171,,,,
1985,,72nd & Mercy Rd NW,,41.237968,-96.024072,,,,
1989,,42nd & Leavenworth NW,,41.252517,-95.975868,,,,
1993,,72nd & Mercy Rd SE,,41.237825,-96.023678,,,,
1998,,48th & Center NW,,41.241589,-95.985623,,,,
1999,,43rd & Leavenworth NW,,41.252487,-95.977538,,,,
2007,,20th & St Marys Ave NW,,41.254423,-95.942595,,,,
2012,,18th & St Marys Ave NE,,41.255083,-95.939756,,,,
2016,,73rd & Dorcas NW,,41.238865,-96.026436,,,,
2018,,72nd & Cedar NW,,41.240382,-96.023984,,,,
2023,,72nd & Hickory SE,,41.243308,-96.023862,,,,
2024,,72nd & Cedar SE,,41.240238,-96.0239,,,,
2027,,108th & Blondo NE,,41.277945,-96.0811,,,,
2031,,27th & Leavenworth SE,,41.252332,-95.951718,,,,
2036,,25th Ave & Leavenworth SW,,41.252335,-95.949475,,,,
2040,,72nd & Rose Blumpkin Dr SE,,41.251655,-96.023889,,,,
2054,,38th & Dodge SW,,41.259549,-95.96912,,,,
2062,,84th & Grover NE,,41.227875,-96.042955,,,,
2066,,76th & Cass SE,,41.263204,-96.030681,,,,
2077,,76th & Dodge NE,,41.259781,-96.031373,,,,
2078,,38th & Dodge NE,,41.259711,-95.968893,,,,
2080,,77th & Dodge SE,,41.259597,-96.033091,,,,
2082,,77th & Dodge NE,,41.259741,-96.033235,,,,
2086,,40th & Dodge SW,,41.259534,-95.973403,,,,
2091,,30th & Spencer SE,,41.287694,-95.956449,,,,
2097,,30th & Bristol SE,,41.289072,-95.95644,,,,
2101,,30th & Binney NW,,41.286055,-95.956649,,,,
2112,,30th & Q St SE,,41.205468,-95.957664,,,,
2113,,22nd & Leavenworth SE,,41.252323,-95.944595,,,,
2120,,108th & Taylor NE,,41.29923,-96.081343,,,,
2121,,30th & Pinkney NW,,41.290593,-95.956658,,,,
2122,,49th & NW Radial Hwy NW,,41.281537,-95.987602,,,,
2125,,74th Ave & Cass SE,,41.263227,-96.027984,,,,
2126,,40th & Dodge NW,,41.259723,-95.97344,,,,
2129,,42nd & Paxton Bd SW,,41.297591,-95.975909,,,,
2137,,30th & Pratt NW,,41.292394,-95.956651,,,,
2140,,18th & Leavenworth SW,,41.252301,-95.939596,,,,
2154,,72nd & Seward NW,,41.274237,-96.023974,,,,
2155,,30th & Spaulding NW,,41.294204,-95.956655,,,,
2159,,20th & Leavenworth SW,,41.25228,-95.94234,,,,
2163,,75th Ave & Blondo SW,,41.277738,-96.029906,,,,
2170,,30th & Larimore Ave NW,,41.302361,-95.956601,,,,
2175,,30th & Fort NE1,,41.306801,-95.956467,,,,
2180,,30th & Ellison Ave SE,,41.309295,-95.956413,,,,
2182,,35th & L St SE,,41.212184,-95.964893,,,,
2187,,83rd & Maple NE,,41.285133,-96.042011,,,,
2188,,83rd & Maple SW,,41.28498,-96.042285,,,,
2190,,81st & Maple NE,,41.285139,-96.038931,,,,
2191,,81st & Maple SW,,41.284977,-96.039145,,,,
2193,,80th & Maple NE,,41.285135,-96.036531,,,,
2195,,36th & Cuming NE,,41.268017,-95.966383,,,,
2197,,30th & Laurel Ave SE,,41.312059,-95.956443,,,,
2199,,36th & L St SE,,41.212191,-95.966967,,,,
2208,,30th & Kansas Ave SE,,41.313842,-95.956447,,,,
2211,,Cole Creek Dr & Blondo SW,,41.277691,-96.035468,,,,
2215,,78th & Blondo SW,,41.277704,-96.033343,,,,
2217,,30th & Curtis Ave NE,,41.315832,-95.956463,,,,
2221,,30th & Redick Ave SE,,41.317461,-95.956419,,,,
2222,,24th & O St NW,,41.208398,-95.947189,,,,
2226,,Davis Cir & Blondo NW,,41.277889,-96.030742,,,,
2233,,78th & Maple NE,,41.285132,-96.033308,,,,
2234,,78th & Maple SW,,41.284978,-96.033726,,,,
2236,,38th & Cuming NE,,41.268022,-95.968925,,,,
2237,,76th/Benson Gardens & Maple NE,,41.285137,-96.030981,,,,
2238,,76th/Benson Gardens & Maple SW,,41.284983,-96.031219,,,,
2242,,75th & Maple SW,,41.284936,-96.027685,,,,
2243,,75th & Maple NE,,41.285132,-96.028808,,,,
2245,,72nd & Jones NW,,41.254437,-96.024017,,,,
2246,,72nd & Howard SE,,41.255959,-96.023867,,,,
2247,,24th & Leavenworth NE,,41.252509,-95.946898,,,,
2248,,72nd & Pacific NE,,41.248864,-96.023868,,,,
2249,,72nd & Farnam SE,,41.257922,-96.023754,,,,
2251,,72nd & Poppleton Ave NE,,41.246784,-96.02385,,,,
2252,,72nd & Rose Blumpkin Dr NW,,41.251844,-96.024033,,,,
2260,,30th & Miami NW,,41.283327,-95.956643,,,,
2279,,72nd & Dodge SE,,41.25948,-96.023592,,,,
2293,,72nd & Howard NW,,41.256157,-96.023975,,,,
2295,,46th & Dodge NE,,41.259719,-95.982652,,,,
2300,,73rd & Cass SE,,41.263212,-96.025955,,,,
2304,,72nd & Cass SW,,41.263243,-96.023915,,,,
2308,,Florence Blvd & Ames Ave SW,,41.299515,-95.942255,,,,
2321,,24th & H St NW,,41.21742,-95.947136,,,,
2323,,45th & Leavenworth NE,,41.252474,-95.980557,,,,
2324,,69th & Dodge SW,,41.259551,-96.019225,,,,
2325,,49th & Dodge NE,,41.259738,-95.987819,,,,
2327,,69th & Dodge NE,,41.259713,-96.019082,,,,
2329,,49th & Dodge SW,,41.259594,-95.987973,,,,
2334,,50th & Dodge SW,,41.259581,-95.990372,,,,
2337,,44th & Dodge SW,,41.259581,-95.978737,,,,
2339,,66th & Dodge NE,,41.259706,-96.012877,,,,
2340,,50th & Dodge NW,,41.259717,-95.990169,,,,
2343,,33rd & Paxton Blvd SW,,41.297124,-95.961413,,,,
2351,,144th & W Center NW,,41.233946,-96.138831,,,,
2352,,72nd & Crown Point Center SB,,41.31552,-96.023964,,,,
2354,,30th & U St SW,,41.201515,-95.95775,,,,
2355,,24th & F St NW,,41.219842,-95.947141,,,,
2358,,30th & Hamilton SE,,41.271874,-95.956486,,,,
2363,,24th & D St SE,,41.222057,-95.946919,,,,
2377,,74th & Blondo NW,,41.277869,-96.027161,,,,
2379,,73rd & Blondo SE,,41.277718,-96.025704,,,,
2382,,30th & Vane SE,,41.322873,-95.956515,,,,
2383,,24th & J NW,,41.2148,-95.947143,,,,
2387,,30th & Whitmore NW,,41.32217,-95.956609,,,,
2392,,30th & Ida NE,,41.321216,-95.956499,,,,
2404,,67th Ave & Blondo SW,,41.277717,-96.016776,,,,
2410,,70th Ave & Blondo NE,,41.277852,-96.021384,,,,
2415,,72nd & Poppleton Ave SW,,41.246306,-96.024039,,,,
2417,,Military Ave & Patrick Ave MB,,41.277777,-95.979583,,,,
2418,,72nd & Maple SW,,41.284934,-96.024104,,,,
2423,,72nd & Maple NW,,41.285132,-96.023961,,,,
2425,,42nd & Cuming NE,,41.268012,-95.97605,,,,
2432,,69th & Blondo NE,,41.277848,-96.019008,,,,
2438,,72nd & Cass NE,,41.263207,-96.023986,,,,
2441,,67th Ave & Blondo NE,,41.277825,-96.016633,,,,
2442,,66th & Blondo NE,,41.277811,-96.014246,,,,
2444,,66th & Blondo SW,,41.277694,-96.014436,,,,
2445,,72nd & Izard SW,,41.268655,-96.02392,,,,
2447,,65th & Blondo NW,,41.27777,-96.011823,,,,
2449,,69th & Maple NE,,41.285105,-96.019007,,,,
2450,,69th & Maple SE,,41.284961,-96.018995,,,,
2451,,45th & Cuming SW,,41.267844,-95.980035,,,,
2455,,NW Radial Hwy & Nicholas SE,,41.269903,-95.982642,,,,
2457,,66th & Maple NE,,41.285086,-96.014256,,,,
2458,,67th Ave & Maple NE,,41.285118,-96.016644,,,,
2459,,67th Ave & Maple SW,,41.284947,-96.016882,,,,
2462,,NW Radial Hwy & Hamilton NW,,41.272278,-95.983556,,,,
2468,,65th & Maple NE,,41.285081,-96.011869,,,,
2469,,NW Radial Hwy & Seward SE,,41.274052,-95.983345,,,,
2473,,60th & Grant NW,,41.279637,-96.004881,,,,
2477,,60th & Blondo NW,,41.277809,-96.004876,,,,
2480,,60th & Blondo SW,,41.277647,-96.004875,,,,
2484,,62nd St & L St NE,,41.212549,-96.009383,,,,
2489,,60th & L St SW,,41.212422,-96.004756,,,,
2491,,60th & Lake SE,,41.281303,-96.004695,,,,
2492,,16th & Missouri Ave SW,,41.212929,-95.936944,,,,
2497,,60th & Miami NW,,41.283247,-96.00488,,,,
2499,,60th & O St NW,,41.208487,-96.004708,,,,
2502,,60th & N St SE,,41.209982,-96.004558,,,,
2505,,13th & G St SE,,41.218093,-95.933281,,,,
2506,,60th & O St SE,,41.208388,-96.004577,,,,
2510,,30th & Q St SW,,41.20544,-95.957795,,,,
2512,,46th Ave & L St SW,,41.212518,-95.983686,,,,
2519,,45th & L St NE,,41.212666,-95.981111,,,,
2521,,42nd & L St SE,,41.212547,-95.976078,,,,
2523,,52nd & L St NE,,41.212572,-95.995503,,,,
2532,,63rd & Blondo NE,,41.277765,-96.009459,,,,
2544,,16th & Vinton NW,,41.234413,-95.937402,,,,
2556,,39th & L St NE,,41.212707,-95.971011,,,,
2566,,33rd & L St SW,,41.21216,-95.962639,,,,
2568,,16th & Leavenworth NE,,41.252574,-95.937127,,,,
2572,,46th & L St SW,,41.212538,-95.982386,,,,
2574,,42nd & L St NE,,41.212647,-95.975733,,,,
2577,,Elm & Vinton SW,,41.232897,-95.940393,,,,
2578,,16th & William SE,,41.24556,-95.937209,,,,
2584,,19th & Vinton MB,,41.232329,-95.941024,,,,
2591,,16th & Martha SE,,41.238122,-95.937242,,,,
2592,,20th & Vinton NE,,41.230833,-95.942202,,,,
2595,,17th & Vinton SW,,41.233772,-95.938749,,,,
2596,,8th & Farnam NW,,41.257573,-95.926648,,,,
2597,,21st & Vinton NE,,41.229516,-95.944048,,,,
2623,,19th & Vinton SW,,41.231977,-95.941119,,,,
2624,,24th & Vinton SE,,41.229378,-95.946958,,,,
2625,,24th & Douglas SE,,41.258578,-95.94666,,,,
2627,,24th & Farnam NE,,41.257713,-95.94679,,,,
2633,,24th & St Marys Ave NE,,41.254031,-95.946842,,,,
2637,,24th & Leavenworth NW,,41.252455,-95.947089,,,,
2639,,24th & Leavenworth SW,,41.252311,-95.947125,,,,
2641,,24th & Mason SE,,41.250528,-95.946978,,,,
2643,,24th & Mason NW,,41.25069,-95.947169,,,,
2646,,23rd St & Vinton NE,,41.229478,-95.945503,,,,
2647,,24th & Deer Park Blvd SW,,41.228108,-95.947146,,,,
2650,,24th & B St SE,,41.224506,-95.946924,,,,
2652,,24th & B St NW,,41.224758,-95.94714,,,,
2653,,24th & Pacific SE,,41.24888,-95.946939,,,,
2654,,24th & Pacific SW,,41.248853,-95.947118,,,,
2659,,25th Ave & Sprague NE,,41.296059,-95.94934,,,,
2660,,24th & Poppleton Ave SE,,41.246927,-95.946803,,,,
2691,,30th & L St SW,,41.212112,-95.957821,,,,
2692,,33rd & L St SE,,41.211584,-95.962471,,,,
2700,,42nd & J St NW,,41.214456,-95.976345,,,,
2705,,42nd & D St NW,,41.221641,-95.975946,,,,
2707,,42nd & Dayton SW,,41.218022,-95.976044,,,,
2710,,42nd & F St NW,,41.219832,-95.975989,,,,
2713,,42nd & Frederick NW,,41.231888,-95.975924,,,,
2714,,42nd & D St SE,,41.221651,-95.975731,,,,
2725,,48th & Bedford Ave SW,,41.288624,-95.986917,,,,
2731,,33rd St & Edward Babe Gomez Ave,,41.210747,-95.962695,,,,
2740,,24th & D St NW,,41.222255,-95.947134,,,,
2741,,30th & Harrison NE,,41.191016,-95.957596,,,,
2748,,16th & William NW,,41.245731,-95.937424,,,,
2751,,24th & F St SE,,41.219635,-95.946938,,,,
2755,,16th & Pierce SE,,41.247991,-95.937189,,,,
2761,,16th & Pine SW,,41.243921,-95.937432,,,,
2762,,30th & W St SE,,41.199714,-95.957639,,,,
2763,,30th & W St NW,,41.199849,-95.957818,,,,
2767,,16th & Center NW,,41.241454,-95.937439,,,,
2772,,30th & U Plz SE,,41.201515,-95.957607,,,,
2779,,16th & Martha NW,,41.238284,-95.937445,,,,
2781,,30th & S St SE,,41.203379,-95.957671,,,,
2782,,30th & S St NW,,41.203495,-95.957826,,,,
2793,,27th & Harrison NW,,41.191022,-95.952935,,,,
2795,,27th & Polk NW,,41.191949,-95.952937,,,,
2796,,16th & Douglas SW,,41.258553,-95.937293,,,,
2797,,24th & H St SE,,41.217213,-95.946921,,,,
2799,,27th & Drexel NW,,41.192805,-95.952963,,,,
2802,,24th & J St SE,,41.21462,-95.94694,,,,
2804,,27th & Madison NW,,41.194668,-95.952967,,,,
2808,,16th & Jackson SW,,41.254438,-95.937226,,,,
2810,,27th & Washington SW,,41.196199,-95.953042,,,,
2819,,24th & Martha NW,,41.238309,-95.947406,,,,
2820,,EB Gomez Cir & EB Gomez Ave SW,,41.209931,-95.959617,,,,
2821,,24th & Castelar NW,,41.236716,-95.947128,,,,
2830,,27th St & Edward Babe Gomez Ave,,41.206356,-95.953016,,,,
2832,,16th & Pierce SW,,41.248099,-95.937357,,,,
2833,,45th & Bedford Ave SW,,41.288598,-95.980697,,,,
2838,,24th & Castelar SE,,41.236932,-95.946914,,,,
2840,,16th & Pine NE,,41.244254,-95.937218,,,,
2841,,24th & Bancroft SE,,41.234186,-95.946944,,,,
2842,,72nd & Decatur SE,,41.27557,-96.023799,,,,
2844,,24th & Bancroft NW,,41.234294,-95.947123,,,,
2846,,16th & Center SE,,41.241328,-95.937225,,,,
2848,,24th & Deer Park Blvd SE,,41.228108,-95.946968,,,,
2849,,72nd & Seward SE,,41.274102,-96.023747,,,,
2850,,24th & Oak SE,,41.231737,-95.946927,,,,
2855,,24th & Oak NW,,41.231898,-95.947142,,,,
2857,,24th & Spring NW,,41.230962,-95.947152,,,,
2862,,16th & Castelar SW,,41.236871,-95.937443,,,,
2863,,24th & Spring SE,,41.230557,-95.946949,,,,
2867,,16th & Vinton NE,,41.234575,-95.937247,,,,
2871,,24th & N St NW,,41.209847,-95.947157,,,,
2877,,25th & L St SW,,41.212178,-95.948628,,,,
2879,,20th & Vinton SE,,41.230788,-95.942107,,,,
2882,,21st & Vinton SW,,41.229345,-95.944203,,,,
2883,,72nd & Izard NE,,41.268502,-96.0238,,,,
2888,,72nd & Burt SW,,41.266845,-96.02395,,,,
2892,,36th & L St NE,,41.212335,-95.966848,,,,
2895,,22nd & St Marys Ave NW,,41.254195,-95.944921,,,,
2901,,16th & Capitol Ave NE,,41.260714,-95.937094,,,,
2907,,26th & St Marys Ave NE,,41.253811,-95.949884,,,,
2910,,27th & St Marys Ave NE,,41.253629,-95.951769,,,,
2915,,46th Ave & L St NE,,41.212654,-95.983412,,,,
2916,,Aksarben Dr & Mercy Rd NW,,41.238243,-96.016581,,,,
2921,,49th & Leavenworth SW,,41.252346,-95.987847,,,,
2924,,50th & Leavenworth NE,,41.252486,-95.990114,,,,
2930,,51st & Leavenworth NE,,41.252474,-95.992596,,,,
2933,,51st & Leavenworth SW,,41.252339,-95.99244,,,,
2942,,55th & Leavenworth NE,,41.252438,-95.997917,,,,
2948,,Happy Hollow & Leavenworth NE,,41.252423,-96.001651,,,,
2952,,60th & Mason NW,,41.249861,-96.004842,,,,
2953,,59th & Leavenworth SW,,41.252303,-96.003739,,,,
2956,,60th & Leavenworth SW,,41.252175,-96.004813,,,,
2964,,55th & Leavenworth SW,,41.252303,-95.998012,,,,
2974,,31st & Ed Creighton Ave NE,,41.239233,-95.957762,,,,
2978,,32nd Ave & Ed Creighton Ave SE,,41.239086,-95.960148,,,,
2980,,32nd Ave & Martha SE,,41.237771,-95.960216,,,,
2985,,32nd Ave & Arbor NW,,41.235862,-95.960439,,,,
2990,,32nd Ave & Wright NW,,41.233818,-95.960458,,,,
2993,,24th & Ellison Ave SE,,41.309234,-95.946812,,,,
3003,,48th & Leavenworth NW,,41.252502,-95.985496,,,,
3009,,51st & Dodge NE,,41.25974,-95.992592,,,,
3012,,51st & Dodge SW,,41.259596,-95.992723,,,,
3017,,52nd & Dodge NE,,41.259727,-95.995014,,,,
3025,,13th & Douglas SW,,41.258548,-95.933296,,,,
3026,,Happy Hollow Bd & Dodge SW,,41.259592,-96.000885,,,,
3027,,52nd & Dodge SE,,41.259592,-95.99493,,,,
3029,,Happy Hollow Bd & Dodge NE,,41.259701,-96.000252,,,,
3034,,54th & Dodge NE,,41.259714,-95.997329,,,,
3036,,12th & Dodge NE,,41.259702,-95.93183,,,,
3042,,16th & Jackson SE,,41.25442,-95.937106,,,,
3045,,16th & Howard SE,,41.255401,-95.937084,,,,
3064,,14th & Douglas SW,,41.258573,-95.934596,,,,
3069,,72nd & Graceland Dr SW,,41.295748,-96.023972,,,,
3071,,61st & Blondo SW,,41.277706,-96.007251,,,,
3077,,60th & Grant SE,,41.279475,-96.004702,,,,
3078,,63rd & Maple NE,,41.285068,-96.009469,,,,
3083,,60th & Lake NW,,41.281438,-96.004886,,,,
3086,,63rd & Blondo SW,,41.277657,-96.009674,,,,
3088,,61st & Blondo NE,,41.277814,-96.00712,,,,
3089,,NW Radial Hwy & Decatur SE,,41.276213,-95.983411,,,,
3097,,NW Radial Hwy & Burdette SE,,41.27868,-95.983345,,,,
3098,,60th & Maple NW,,41.285084,-96.004921,,,,
3105,,NW Radial Hwy & Blondo NW,,41.277924,-95.983558,,,,
3110,,103rd & Fort SW,,41.306495,-96.073909,,,,
3112,,50th & NW Radial Hwy NW,,41.281704,-95.990408,,,,
3114,,102nd & Maple SE,,41.28508,-96.071615,,,,
3118,,30th & Myrtle SE,,41.270505,-95.956495,,,,
3120,,30th & Hamilton NW,,41.272027,-95.956701,,,,
3122,,30th & Nicholas NW,,41.269749,-95.956708,,,,
3125,,30th & Cuming NE,,41.268129,-95.956406,,,,
3140,,30th & Burt NW,,41.26694,-95.956654,,,,
3145,,16th & Leavenworth NW,,41.252439,-95.937305,,,,
3153,,30th & Seward NW,,41.273828,-95.956705,,,,
3154,,16th & Castelar SE,,41.23688,-95.93724,,,,
3156,,30th & Franklin SE,,41.274629,-95.956468,,,,
3161,,99th Ave & W Center SW,,41.234171,-96.067585,,,,
3165,,30th & Sprague SE,,41.295879,-95.956491,,,,
3170,,30th & Parker SE,,41.276394,-95.956448,,,,
3171,,18th & Vinton NE,,41.233591,-95.939655,,,,
3178,,102nd & Military Rd SW,,41.313826,-96.072887,,,,
3183,,105th & Military Rd NE,,41.31397,-96.077199,,,,
3190,,52nd & NW Radial Hwy NE,,41.284533,-95.994964,,,,
3193,,108th & Ogden Plz SE,,41.307747,-96.081294,,,,
3196,,108th & Ellison Ave NW,,41.310835,-96.081605,,,,
3199,,40th & Hamilton SW,,41.27205,-95.973064,,,,
3212,,45th & Binney SE,,41.285312,-95.98051,,,,
3215,,Military Ave & Decatur NW,,41.276337,-95.97915,,,,
3216,,Military Ave & Decatur SE,,41.276175,-95.978875,,,,
3217,,45th & Wirt NW,,41.28695,-95.980705,,,,
3222,,45th & Miami NW,,41.283204,-95.980695,,,,
3225,,45th & Miami SE,,41.283097,-95.98048,,,,
3230,,Military Ave & Hamilton NW,,41.272278,-95.977337,,,,
3234,,41st & Hamilton SW,,41.272057,-95.974628,,,,
3235,,45th & Wirt SE,,41.286779,-95.980525,,,,
3240,,32nd Ave & Frederick SE,,41.231279,-95.960285,,,,
3244,,Park Ave & Shirley SE,,41.241144,-95.95575,,,,
3246,,42nd & Vinton NW,,41.229484,-95.975918,,,,
3247,,Park Ave & Hickory SE,,41.243224,-95.955731,,,,
3248,,Park Ave & Woolworth Ave SW,,41.245133,-95.955914,,,,
3251,,Park Ave & Poppleton Ave NW,,41.247015,-95.95593,,,,
3254,,42nd & Bancroft NW,,41.234319,-95.975954,,,,
3256,,42nd & Arbor NE,,41.235814,-95.975671,,,,
3257,,42nd & Frederick SE,,41.231762,-95.975745,,,,
3260,,42nd & Marinda NW,,41.238524,-95.975905,,,,
3264,,42nd & Center NW,,41.241558,-95.976019,,,,
3267,,42nd & Marinda SE,,41.238362,-95.975701,,,,
3269,,Pacific & Park Ave NW,,41.24886,-95.955946,,,,
3270,,32nd Ave & Vinton NE,,41.229541,-95.960317,,,,
3271,,Park Ave. & Leavenworth SE,,41.252309,-95.955727,,,,
3274,,Park Ave & St Marys Ave NW,,41.253624,-95.955969,,,,
3284,,139th & W Center SW,,41.233909,-96.1293,,,,
3296,,42nd & Leavenworth SW,,41.252309,-95.975915,,,,
3298,,125th Ave & W Center NE,,41.234115,-96.109333,,,,
3299,,40th & Leavenworth NE,,41.252457,-95.973302,,,,
3314,,38th & Leavenworth NE,,41.252454,-95.968959,,,,
3320,,32nd Ave & Wright SE,,41.233647,-95.960243,,,,
3324,,32nd Ave & Arbor SE,,41.2357,-95.960212,,,,
3328,,32nd Ave & Martha NW,,41.237933,-95.96042,,,,
3330,,32nd Ave & Ed Creighton Ave SW,,41.239004,-95.960446,,,,
3334,,Ed Creighton Ave & Park Ave NW,,41.23928,-95.956104,,,,
3336,,Park Ave & Shirley SW,,41.241126,-95.955894,,,,
3346,,16th & Dodge NE,,41.259768,-95.936997,,,,
3350,,Park Ave & Hickory NW,,41.243341,-95.95591,,,,
3354,,Woolworth Ave & Park Ave SE,,41.245187,-95.9557,,,,
3361,,Park Ave & Poppleton Ave SE,,41.246916,-95.955739,,,,
3368,,Park Ave & Mason NW,,41.25085,-95.955939,,,,
3385,,Park Ave & St Marys Ave SW,,41.253389,-95.955944,,,,
3393,,72nd & Maple SE,,41.28497,-96.023794,,,,
3399,,20th & Broadway SW,,41.261836,-95.873553,,,,
3407,,30th & Lindsay Ave NW,,41.278357,-95.956667,,,,
3414,,105th & W Center NE,,41.234344,-96.074444,,,,
3415,,44th & Dodge NE,,41.259734,-95.978571,,,,
3419,,108th & W Center SW,,41.234139,-96.081529,,,,
3427,,JCSprag1,,41.296029,-95.958903,,,,
3430,,30th & Scott SE,,41.326446,-95.957538,,,,
3433,,66th & Dodge SW,,41.259571,-96.013271,,,,
3435,,30th & Lake SE,,41.281364,-95.956459,,,,
3438,,24th & Miller Park Dr SE,,41.315672,-95.946813,,,,
3450,,40th & Dodge NE,,41.259715,-95.973225,,,,
3452,,40th & Davenport SE,,41.261119,-95.973109,,,,
3453,,40th & Davenport NW,,41.26129,-95.973205,,,,
3454,,34th Ave & Paxton Blvd SW,,41.296464,-95.963883,,,,
3456,,40th & Chicago NE,,41.262344,-95.972849,,,,
3463,,40th & Cass SW,,41.263622,-95.973067,,,,
3465,,40th & California NW,,41.264847,-95.973046,,,,
3466,,40th & California SE,,41.26464,-95.972843,,,,
3471,,40th & Burt SW,,41.266756,-95.972991,,,,
3472,,40th & Burt SE,,41.266819,-95.972825,,,,
3473,,40th & Cuming NE,,41.268089,-95.972792,,,,
3478,,40th & Nicholas NW,,41.270123,-95.973036,,,,
3479,,40th & Nicholas SE,,41.269935,-95.972832,,,,
3484,,90th & W Center NW,,41.234337,-96.052998,,,,
3486,,133rd Plz & W Center NW,,41.23411,-96.121643,,,,
3495,,Military Ave & Seward NW,,41.274258,-95.978178,,,,
3504,,Military Ave & Hamilton NE,,41.272225,-95.977122,,,,
3506,,Military Ave & Seward SE,,41.274078,-95.977819,,,,
3508,,41st Ave & Hamilton NE,,41.272219,-95.974807,,,,
3509,,40th & Hamilton SE,,41.272042,-95.972813,,,,
3511,,33rd & Parker SE,,41.276415,-95.96139,,,,
3513,,40th & Lake NE,,41.281479,-95.972204,,,,
3514,,33rd & 33rd Ave SE,,41.277729,-95.961417,,,,
3515,,38th & Lake NE,,41.281472,-95.970199,,,,
3516,,38th (Grant) & Lake SW,,41.281319,-95.970509,,,,
3520,,33rd & Decatur NW,,41.275631,-95.961591,,,,
3524,,40th & Miami SE,,41.283009,-95.972196,,,,
3525,,40th & Miami NW,,41.283162,-95.972411,,,,
3526,,33rd & Seward NW,,41.273812,-95.961575,,,,
3530,,40th & Maple SE,,41.284675,-95.9722,,,,
3531,,40th & Maple NW,,41.284828,-95.972415,,,,
3532,,33rd & Hamilton SE,,41.272147,-95.961368,,,,
3536,,40th & Wirt SE,,41.286341,-95.972192,,,,
3537,,40th & Wirt NW,,41.286485,-95.972395,,,,
3538,,33rd & Myrtle Ave NW,,41.270643,-95.961568,,,,
3542,,37th & Lake NW,,41.281466,-95.968265,,,,
3544,,33rd Ave & Grant NW,,41.279295,-95.962459,,,,
3545,,30th & Weber NW,,41.32695,-95.957826,,,,
3546,,John Creighton Blvd & Lake NE,,41.281468,-95.967047,,,,
3550,,33rd & Erskine NE,,41.279899,-95.961386,,,,
3552,,36th & Lake SW,,41.281316,-95.966175,,,,
3553,,33rd Ave & Lake SW,,41.281222,-95.962475,,,,
3554,,34th Ave & Lake NE,,41.281481,-95.963717,,,,
3555,,34th Ave & Lake SE,,41.281328,-95.963633,,,,
3560,,40th & Redick Ave NE,,41.317745,-95.973093,,,,
3568,,28th Ave & Martin Ave SW,,41.325189,-95.954585,,,,
3579,,42nd & Pratt NW,,41.292386,-95.97586,,,,
3581,,42nd & Bedford Ave NE,,41.28874,-95.975708,,,,
3582,,33rd & California NE,,41.264863,-95.961423,,,,
3583,,33rd & California NW,,41.264862,-95.961638,,,,
3585,,32nd & California NE,,41.264865,-95.959824,,,,
3586,,32nd & California SW,,41.264702,-95.959979,,,,
3590,,40th & Bedford Ave NE,,41.288718,-95.972066,,,,
3591,,33rd & Burt NE,,41.267069,-95.961416,,,,
3593,,40th & Bedford Ave SW,,41.288601,-95.972221,,,,
3594,,33rd & Lincoln Blvd NE,,41.268951,-95.961361,,,,
3595,,33rd & Lincoln Blvd NW,,41.268806,-95.961575,,,,
3597,,33rd & Myrtle Ave SE,,41.270517,-95.961364,,,,
3601,,42nd & Pinkney NW,,41.290577,-95.975855,,,,
3602,,30th & California SE,,41.264716,-95.956494,,,,
3609,,51st & NW Radial Hwy SE,,41.282727,-95.992476,,,,
3610,,120th & M St SE,,41.210394,-96.100605,,,,
3613,,40th & Pratt,,41.292194,-95.972003,,,,
3614,,Minne Lusa Blvd & Iowa SE,,41.324383,-95.951,,,,
3619,,39th & Pratt SW,,41.292204,-95.97106,,,,
3626,,120th & I St NW,,41.216291,-96.100977,,,,
3627,,28th & Harrison NE,,41.191037,-95.955164,,,,
3630,,37th & Pratt NE,,41.292343,-95.968446,,,,
3632,,16th St & Capitol Ave SE,,41.260633,-95.937058,,,,
3636,,36th & Pratt SW,,41.292202,-95.966165,,,,
3646,,24th & Fort SE,,41.306587,-95.94683,,,,
3659,,60th & Q St NW,,41.205308,-96.004806,,,,
3668,,24th & Davenport SE,,41.261621,-95.946833,,,,
3671,,72nd & Jones SE,,41.254266,-96.023874,,,,
3672,,24th & Spencer NW,,41.287922,-95.947102,,,,
3673,,24th & Chicago SE,,41.262657,-95.946859,,,,
3676,,24th & Blondo NW,,41.277486,-95.947141,,,,
3686,,24th & California NW,,41.264853,-95.947138,,,,
3690,,72nd & Dodge NW,,41.259758,-96.024166,,,,
3691,,48th & L St SW,,41.212478,-95.98613,,,,
3695,,33rd & Hamilton NW,,41.272309,-95.961571,,,,
3697,,33rd & Seward SE,,41.27366,-95.96136,,,,
3699,,33rd & Decatur SE,,41.275496,-95.961376,,,,
3700,,33rd & Parker NW,,41.276541,-95.961593,,,,
3701,,33rd Ave & Burdette NW,,41.278332,-95.962134,,,,
3704,,32nd & Broadway NE,,41.262029,-95.896238,,,,
3705,,19th & Douglas SE,,41.258557,-95.94098,,,,
3708,,30th & Broadway SW,,41.26187,-95.892538,,,,
3712,,28th & Broadway NE,,41.262034,-95.888887,,,,
3718,,23rd & Broadway NE,,41.261987,-95.878195,,,,
3723,,24th & Binney SE,,41.285959,-95.946895,,,,
3724,,24th & Cuming NW,,41.268059,-95.947145,,,,
3725,,24th & Lake NW,,41.281601,-95.947125,,,,
3729,,24th & Maple NW,,41.284797,-95.947096,,,,
3734,,24th & Paul (Hamilton) NE,,41.272246,-95.946963,,,,
3735,,24th & Maple SE,,41.28441,-95.946892,,,,
3742,,24th & Seward NW,,41.273875,-95.947133,,,,
3743,,24th & Spencer NE,,41.287922,-95.946899,,,,
3744,,24th & Bristol SW,,41.289281,-95.947057,,,,
3745,,24th & Decatur NW,,41.275694,-95.947137,,,,
3746,,52nd & L St SW,,41.212455,-95.995574,,,,
3748,,24th & Blondo NE,,41.277522,-95.94695,,,,
3749,,Minne Lusa Blvd & Read NW,,41.323761,-95.951392,,,,
3750,,24th & Grant NW,,41.280187,-95.947098,,,,
3751,,24th & Pinkney NE,,41.290686,-95.946893,,,,
3752,,24th & Burdette NW,,41.278891,-95.947096,,,,
3755,,24th & Pratt SW,,41.292316,-95.947087,,,,
3758,,24th & Lake SE,,41.281466,-95.94691,,,,
3761,,24th & Sprague SE,,41.295935,-95.946856,,,,
3763,,24th & Sahler NW,,41.29698,-95.947049,,,,
3764,,24th & Taylor NE,,41.298808,-95.946862,,,,
3781,,Pinkney & Terrace Dr NE,,41.290447,-96.066933,,,,
3783,,Maplewood Blvd & Terrace Dr NE,,41.28937,-96.065341,,,,
3785,,95th & Maplewood Blvd NE,,41.291631,-96.060705,,,,
3786,,95th & Maplewood Blvd SW,,41.291415,-96.060931,,,,
3791,,Ames Ave & Terrace Dr SE,,41.299118,-96.066978,,,,
3806,,81st & Templeton Dr SW,,41.301626,-96.038964,,,,
3807,,52nd & Hartman Ave. SE,,41.310321,-95.994916,,,,
3809,,80th & Templeton Dr SW,,41.30163,-96.036552,,,,
3812,,Templeton Dr & Fort SW,,41.306426,-96.047459,,,,
3813,,83rd & Templeton Dr SW,,41.30163,-96.041364,,,,
3814,,Aksarben Dr & Mercy Rd SE,,41.238145,-96.016223,,,,
3819,,Parkview Dr & Fort SW,,41.306267,-96.06709,,,,
3822,,85th/84th & Templeton Dr SW,,41.302238,-96.043503,,,,
3823,,93rd Ave & Maplewood Blvd NE,,41.291348,-96.058472,,,,
3824,,93rd Ave & Maplewood Blvd SE,,41.291195,-96.058412,,,,
3829,,44th & Curtis Ave NE,,41.315983,-95.977985,,,,
3830,,90th & Maplewood Blvd NW,,41.291286,-96.053613,,,,
3831,,90th & Maplewood Blvd SE,,41.290937,-96.053002,,,,
3832,,90th & Maplewood Blvd SW,,41.291035,-96.053254,,,,
3833,,90th & Spaulding NW,,41.293674,-96.052905,,,,
3834,,45th & Curtis Ave NE,,41.315907,-95.980421,,,,
3837,,49th & Curtis Ave SW,,41.315689,-95.987885,,,,
3839,,90th & Bedford SE,,41.28874,-96.052553,,,,
3840,,90th & Bedford Ave NW,,41.288839,-96.052792,,,,
3843,,46th Ave & Curtis Ave SW,,41.315688,-95.982678,,,,
3844,,90th & Sprague SE,,41.29544,-96.052458,,,,
3846,,90th & Boyd/Taylor SE,,41.298276,-96.052492,,,,
3848,,90th & Tomahawk Blvd NW,,41.300247,-96.052714,,,,
3850,,Templeton Dr & Grand Ave SW,,41.303421,-96.046135,,,,
3851,,49th Ave & Curtis Ave SE,,41.315696,-95.989318,,,,
3852,,90th & Browne NW,,41.304182,-96.052729,,,,
3853,,51st & Curtis Ave NE,,41.315871,-95.992495,,,,
3854,,90th & Fort NW,,41.306829,-96.052798,,,,
3860,,90th & Shopko Entrance NW,,41.309503,-96.052736,,,,
3861,,87th Ave & Templeton Dr SE,,41.304977,-96.047203,,,,
3862,,89th & Military Ave NE,,41.310596,-96.050949,,,,
3865,,Blair High Rd & Military Rd NW,,41.310989,-96.04855,,,,
3871,,60th & Sorensen Pkwy NW,,41.317805,-96.004862,,,,
3872,,Northwest High & Crown Point NE,,41.31253,-96.043182,,,,
3878,,66th & Sorensen Pkwy SW,,41.317531,-96.012433,,,,
3889,,102nd & Hamilton NW,,41.27178,-96.072004,,,,
3892,,72nd & Crown Point Ave SW,,41.312612,-96.02399,,,,
3894,,72nd & Redick Plz SW,,41.317528,-96.023958,,,,
3898,,72nd & Redick Ave SE,,41.317628,-96.023732,,,,
3905,,72nd & Crown Point Ave NE,,41.312874,-96.023728,,,,
3908,,Florence Blvd & Sahler NW,,41.297525,-95.942251,,,,
3913,,68th Plz & Newport (Immanuel) NE,,41.320238,-96.018975,,,,
3917,,67th & Sorensen Pkwy SE,,41.317571,-96.015144,,,,
3920,,66th & Sorensen Pkwy NW,,41.31777,-96.014488,,,,
3921,,31st Ave & Paxton Blvd NW,,41.297082,-95.959383,,,,
3925,,60th & Miami SE,,41.283122,-96.004665,,,,
3928,,60th & Pratt NW,,41.292351,-96.004835,,,,
3932,,60th & Spaulding NW,,41.294151,-96.004816,,,,
3936,,60th & Sprague NW,,41.295943,-96.00481,,,,
3938,,20th & Burdette NE,,41.278851,-95.942166,,,,
3946,,60th & Ames Ave NE,,41.299581,-96.00457,,,,
3950,,52nd & Ames Ave SW,,41.299525,-95.995137,,,,
3956,,72nd & Hartman Ave NE,,41.310515,-96.023685,,,,
3959,,60th & NW Radial Hwy NE,,41.286849,-96.004688,,,,
3961,,60th & Fowler Ave NW,,41.301391,-96.004766,,,,
3962,,Florence Blvd & Corby SE,,41.283903,-95.942069,,,,
3964,,60th & Browne NW,,41.304983,-96.004741,,,,
3971,,60th & Fort SE,,41.306658,-96.004519,,,,
3975,,79th & Crown Point Ave NE,,41.312868,-96.036005,,,,
3978,,20th & Lake SE,,41.281417,-95.942135,,,,
3987,,Florence Blvd & Spencer SE,,41.287774,-95.942076,,,,
3988,,45th & Lake NW,,41.281485,-95.980691,,,,
3989,,Florence Blvd & Maple NW,,41.284271,-95.942296,,,,
3994,,15th St & Dodge St SE,,41.259635,-95.93578,,,,
3996,,54th & Sorensen Pkwy SE,,41.316953,-95.997025,,,,
3997,,72nd & Hartman Ave NW,,41.31046,-96.023983,,,,
3998,,60th & Sorensen Pkwy SW,,41.317508,-96.004754,,,,
4002,,52nd & Kansas Ave SE,,41.313931,-95.994867,,,,
4014,,52nd & Laurel Ave SE,,41.312113,-95.994897,,,,
4016,,52nd & Laurel Ave NW,,41.312238,-95.995089,,,,
4019,,Florence Blvd & Emmet SE,,41.289575,-95.942068,,,,
4036,,52nd & Curtis/Sorensen Pkwy SE,,41.315652,-95.994489,,,,
4037,,42nd St & L St NE,,41.212691,-95.976174,,,,
4045,,53rd & Sorensen Pkwy NW,,41.316694,-95.996164,,,,
4048,,52nd & Bedford Ave NE,,41.288738,-95.994987,,,,
4062,,50th & Bedford Ave SW,,41.28861,-95.990331,,,,
4096,,42nd & Grand Ave NW,,41.303254,-95.975899,,,,
4099,,90th & Fort NE,,41.306929,-96.052536,,,,
4101,,51st & Curtis Ave SW,,41.315718,-95.992674,,,,
4103,,42nd & Browne NE,,41.305019,-95.975676,,,,
4104,,49th Ave & Curtis Ave NW,,41.315956,-95.989665,,,,
4117,,90th & Larimore Ave NW,,41.302516,-96.052723,,,,
4119,,48th & Curtis Ave NE,,41.315882,-95.98521,,,,
4120,,90th & Tomahawk Blvd NE,,41.300176,-96.052499,,,,
4121,,42nd & Fontenelle Blvd NW,,41.307432,-95.975885,,,,
4123,,90th & Taylor NW,,41.298437,-96.05272,,,,
4124,,42nd & Jaynes Cir NW,,41.308566,-95.975888,,,,
4125,,46th Ave & Curtis Ave NE,,41.315886,-95.982535,,,,
4126,,90th & Sprague NW,,41.295547,-96.052673,,,,
4129,,90th & Spaulding SE,,41.293476,-96.052725,,,,
4130,,42nd & Redman Ave SE,,41.309395,-95.975687,,,,
4132,,90th & Larimore Ave SE,,41.302283,-96.052507,,,,
4134,,44th & Cuming SW,,41.267873,-95.978794,,,,
4136,,26th & Broadway SW,,41.261893,-95.884436,,,,
4139,,28th & Broadway SW,,41.261881,-95.889149,,,,
4144,,42nd & Bedford Ave SW,,41.288641,-95.975839,,,,
4146,,41st & Bedford Ave SW,,41.288606,-95.974597,,,,
4147,,42nd & Pinkney SE,,41.290415,-95.975688,,,,
4149,,42nd & Pratt SE,,41.292261,-95.975704,,,,
4151,,40th Ave & Bedford Ave NW,,41.288734,-95.973762,,,,
4152,,40th & Bedford Ave SE,,41.288592,-95.972066,,,,
4154,,40th St. & Pratt NE,,41.292365,-95.972087,,,,
4155,,39th & Pratt NE,,41.292357,-95.970869,,,,
4156,,42nd & Paxton Bd NE,,41.297897,-95.975742,,,,
4159,,Fontenelle Blvd & Grand Ave NE,,41.30326,-95.977977,,,,
4161,,93rd & Burt NE,,41.267076,-96.057199,,,,
4164,,90th & Burt NE,,41.267077,-96.052438,,,,
4167,,41st & Grand Ave NE,,41.303239,-95.973809,,,,
4170,,40th Ave & Ames Ave NW,,41.299647,-95.97349,,,,
4175,,96th & Nicholas SW,,41.26946,-96.06228,,,,
4177,,40th Ave & Grand Ave SE,,41.303105,-95.973319,,,,
4179,,40th & Grand Ave SE,,41.303124,-95.972066,,,,
4180,,40th & Fowler Ave NW,,41.30144,-95.972288,,,,
4183,,37th & Pratt SW,,41.292189,-95.968648,,,,
4185,,36th & Spaulding NW,,41.294128,-95.966182,,,,
4186,,36th & Spaulding SE,,41.294039,-95.966026,,,,
4191,,36th & Pratt NW,,41.292328,-95.966166,,,,
4200,,34th Ave & Paxton Blvd NE,,41.296671,-95.963704,,,,
4207,,90th & Western Ave NW,,41.270633,-96.052665,,,,
4209,,90th & Charles SE,,41.273209,-96.052472,,,,
4211,,90th & Franklin NW,,41.275117,-96.052682,,,,
4212,,90th & Decatur NE,,41.276045,-96.05253,,,,
4216,,42nd & Himebaugh Ave,,41.311241,-95.975859,,,,
4218,,42nd & Laurel Ave NW,,41.312213,-95.975874,,,,
4221,,42nd & Kansas Ave NW,,41.314032,-95.975866,,,,
4223,,42nd & Curtis Ave SE,,41.315671,-95.975643,,,,
4225,,24th & Ames Ave NW,,41.299707,-95.947568,,,,
4226,,42nd & Redick Ave NE,,41.317742,-95.975553,,,,
4228,,40th & Curtis Ave SW,,41.315674,-95.973422,,,,
4237,,Fontenelle Blvd & Jaynes SE,,41.308557,-95.96981,,,,
4246,,38th & Curtis Ave SW,,41.31567,-95.969743,,,,
4259,,Martin Ave & Newport Ave NW,,41.320088,-95.965598,,,,
4276,,90th & Maple SW,,41.284886,-96.052682,,,,
4279,,24th & Ames Ave NE,,41.299771,-95.946888,,,,
4283,,86th & Q St SW,,41.205233,-96.045582,,,,
4290,,33rd & Paxton Blvd NW,,41.297286,-95.961485,,,,
4301,,108th & I St SW,,41.216166,-96.081658,,,,
4304,,33rd & Martin Ave SW,,41.323119,-95.960899,,,,
4313,,30th & Martin Ave NE,,41.324466,-95.95696,,,,
4322,,42nd & Farnam SE,,41.257757,-95.97569,,,,
4327,,Martin Ave & Read SW,,41.323743,-95.958858,,,,
4329,,98th Plz & Q St NE,,41.205397,-96.065792,,,,
4331,,84th & Q St NW,,41.205418,-96.043127,,,,
4338,,99th & Q St NE,,41.205366,-96.067521,,,,
4340,,33rd & Martin Ave NE,,41.323362,-95.960744,,,,
4348,,25th Ave & Ames Ave SW,,41.299534,-95.949419,,,,
4351,,30th & Meredith Ave NE,,41.300579,-95.956454,,,,
4352,,P St & Q St NE,,41.205379,-96.07012,,,,
4355,,34th & Martin Ave NE,,41.322513,-95.963214,,,,
4357,,30th & Fowler Ave NW,,41.301452,-95.956659,,,,
4358,,30th & Larimore Ave NE,,41.302407,-95.956446,,,,
4364,,24th & Binney NW,,41.286112,-95.947111,,,,
4371,,29th & Ames Ave NE,,41.299626,-95.955281,,,,
4376,,24th & Pinkney SW,,41.290488,-95.947072,,,,
4384,,24th & Pratt SE,,41.292244,-95.946884,,,,
4387,,24th & Spaulding NW,,41.294242,-95.947056,,,,
4394,,60th & (P) Fay Blvd NE,,41.207083,-96.004549,,,,
4396,,84th & F St SW,,41.219581,-96.043212,,,,
4400,,24th & Ames Ave SW,,41.299537,-95.947066,,,,
4406,,119th & I St SW,,41.216143,-96.098722,,,,
4408,,24th & Laird SE,,41.294504,-95.946853,,,,
4411,,30th Ave & McKinley NW,,41.343212,-95.963907,,,,
4418,,24th & Caldwell SE,,41.271012,-95.946936,,,,
4424,,24th & Fowler Ave SE,,41.301374,-95.946831,,,,
4425,,24th & Fowler Ave NW,,41.301112,-95.947046,,,,
4426,,16th & Fort NW,,41.306733,-95.937421,,,,
4430,,24th St & Metro Entrance SE,,41.269004,-95.946896,,,,
4435,,24th & Larimore Ave SW,,41.302553,-95.946989,,,,
4442,,16th & Jaynes SE,,41.308417,-95.937209,,,,
4443,,30th & Sheffield NE,,41.330784,-95.958766,,,,
4445,,16th & Ellison Ave SE,,41.309317,-95.937223,,,,
4447,,120th & I St SW,,41.215958,-96.100916,,,,
4476,,120th & P St SE,,41.20672,-96.10047,,,,
4484,,Washington & Cary NW,,41.172679,-96.043167,,,,
4493,,24th & Newport Ave NW,,41.319337,-95.947,,,,
4506,,30th & Broadway NE,,41.262032,-95.892312,,,,
4507,,20th & Broadway NE,,41.261963,-95.873314,,,,
4510,,32nd & Broadway SW,,41.261858,-95.896464,,,,
4516,,4th & Broadway SW,,41.260766,-95.848946,,,,
4518,,Martin Ave & Redick Ave SE,,41.317492,-95.967216,,,,
4527,,Madison Ave & Palmer Ave SE,,41.255449,-95.834434,,,,
4528,,31st Ave & Ames Ave SW,,41.299486,-95.959018,,,,
4531,,122nd & Q St NE,,41.205374,-96.1023,,,,
4532,,120th & Maple (Emmet) SW,,41.291106,-96.100841,,,,
4541,,Madison Ave & Rosner SE,,41.250119,-95.831354,,,,
4552,,Madison Ave & S 1st,,41.257591,-95.839148,,,,
4561,,11th & Dodge SE,,41.259631,-95.930494,,,,
4563,,Minne Lusa Blvd & Ida NE,,41.321492,-95.951818,,,,
4566,,Minne Lusa Blvd & Vane NE,,41.323041,-95.951367,,,,
4571,,35th & Broadway SW,,41.261845,-95.902132,,,,
4581,,72nd & Home Depot Exit SE,,41.301349,-96.023703,,,,
4650,,13th & Deer Park Blvd SE,,41.227754,-95.933263,,,,
4669,,17th & Dodge NW,,41.259758,-95.938536,,,,
4762,,85th & Burt NW,,41.267004,-96.044203,,,,
4775,,20th & Missouri Ave NE,,41.213014,-95.94169,,,,
4791,,13th & I St SW,,41.216013,-95.933372,,,,
4793,,13th & G St SW,,41.218056,-95.933376,,,,
4794,,60th & M St SE,,41.211567,-96.004538,,,,
4824,,10th & Farnam SE,,41.257481,-95.929117,,,,
4833,,13th & Castelar NW,,41.237028,-95.933411,,,,
4849,,72nd & Blondo NW,,41.277866,-96.023926,,,,
4855,,72nd & Lake SE,,41.281333,-96.023758,,,,
4858,,94th & J St NE,,41.214309,-96.058588,,,,
4860,,120th & Q St NE,,41.205487,-96.100452,,,,
4872,,16th & Broadway SE,,41.261741,-95.867359,,,,
4880,,13th & William NW,,41.245645,-95.933391,,,,
4892,,13th & Pierce NW,,41.248148,-95.933384,,,,
4932,,108th & J St SW,,41.214168,-96.081554,,,,
4938,,99th & Military Rd NE,,41.313966,-96.066857,,,,
4941,,93rd & W Dodge Rd NE,,41.26342,-96.057209,,,,
4944,,86th Plz & Q St NE,,41.205395,-96.045368,,,,
4957,,72nd & Grover NW,,41.227218,-96.023977,,,,
4959,,24th & Newport Ave SE,,41.319391,-95.946809,,,,
4966,,60th Ave & L St NE,,41.212553,-96.006747,,,,
4972,,48th & L St NE,,41.212632,-95.98594,,,,
4986,,24th & Ellison Ave NW,,41.309477,-95.947003,,,,
4996,,19th & Dodge SE,,41.259647,-95.94103,,,,
5006,,52nd & Bedford Ave SE,,41.28863,-95.994963,,,,
5009,,54th & NW Radial Hwy SW,,41.284934,-95.997555,,,,
5018,,120th St & L St,,41.212437,-96.100876,,,,
5034,,16th & Capitol Ave NE,,41.260732,-95.937082,,,,
5036,,42nd & (Center) Shirley SE,,41.242162,-95.975747,,,,
5045,,90th & Burt NW,,41.266995,-96.052807,,,,
5077,,72nd & Pacific SW,,41.248539,-96.023986,,,,
5084,,Florence Blvd & Ames Ave NW,,41.299704,-95.94247,,,,
5092,,83rd & Cass SW,,41.26323,-96.040132,,,,
5099,,62nd Ave & Sorensen Pkwy SW,,41.31753,-96.007656,,,,
5121,,23rd Ave & 24th SW,,41.239179,-95.879472,,,,
5161,,23rd Ave & 10th SW,,41.239261,-95.859145,,,,
5188,,28th Ave & Martin Ave NE,,41.325342,-95.954286,,,,
5197,,24th & Vane SW,,41.322857,-95.947031,,,,
5204,,30th & Bedford Ave NW,,41.288765,-95.956654,,,,
5226,,North Omaha T.C.,,41.298038,-95.957738,,,,
5246,,30th & Webster Plz NW,,41.265904,-95.956676,,,,
5248,,30th & Burt SE,,41.266832,-95.956487,,,,
5258,,23rd Ave & 16th SW,,41.23932,-95.867806,,,,
5262,,23rd Ave & 13th SW,,41.239277,-95.863475,,,,
5294,,24th & Davenport NW,,41.261738,-95.947013,,,,
5297,,24th & Chicago NW,,41.262764,-95.947074,,,,
5303,,24th & California SE,,41.264727,-95.946911,,,,
5326,,16th & Broadway NE,,41.261939,-95.867479,,,,
5327,,16th & Broadway NW,,41.261984,-95.867646,,,,
5330,,30th & California SW,,41.264689,-95.956649,,,,
5343,,24th & Miami SE,,41.283276,-95.946902,,,,
5366,,24th & Grant NE,,41.279962,-95.946931,,,,
5369,,24th & Clark SE,,41.275217,-95.946921,,,,
5370,,24th & Burdette SE,,41.278756,-95.946916,,,,
5372,,30th & Cuming SE,,41.267885,-95.95637,,,,
5377,,24th & Parker NW,,41.276603,-95.947163,,,,
5380,,65th & Blondo SW,,41.277671,-96.012025,,,,
5394,,Madison Ave & Bennett Ave NE,,41.245059,-95.827749,,,,
5401,,Bennett Ave & Franklin Ave NE,,41.253317,-95.820199,,,,
5457,,Bennett Ave & Bonham Ave NE,,41.256315,-95.818373,,,,
5458,,Bennett Ave & Adrian Ave NE,,41.259701,-95.816357,,,,
5469,,60th & NW Radial Hwy NW,,41.286948,-96.004855,,,,
5483,,16th & Storz Exp SW,,41.311127,-95.937501,,,,
5484,,30th & Young NW,,41.333484,-95.959716,,,,
5486,,16th & John J Pershing Dr SE,,41.317502,-95.93725,,,,
5487,,16th & Storz Exp NE,,41.31164,-95.937179,,,,
5527,,18th & Broadway SW,,41.261802,-95.870892,,,,
5534,,16th & Farnam NE,,41.25767,-95.937077,,,,
5552,,42nd & Valley SE,,41.228107,-95.975712,,,,
5559,,42nd & Castelar SW,,41.236984,-95.975901,,,,
5564,,42nd & Vinton NE,,41.229457,-95.975703,,,,
5576,,105th & Fort NE,,41.306748,-96.077481,,,,
5578,,108th & Hartman/Ellison Ave SE,,41.31062,-96.081354,,,,
5580,,107th & Military Rd NE,,41.313989,-96.08034,,,,
5593,,78th & Crown Point Ave NW,,41.312873,-96.033748,,,,
5595,,79th & Crown Point Ave SW,,41.312643,-96.036196,,,,
5596,,Northwest High & Crown Point Ave MB,,41.312869,-96.040197,,,,
5598,,Crown Point Ave & Wenninghoff Rd NE,,41.31112,-96.046078,,,,
5601,,90th & Browne SE,,41.303921,-96.052501,,,,
5610,,94th & Burt NE,,41.267026,-96.05961,,,,
5614,,97th Plz & Nicholas NW,,41.269681,-96.064358,,,,
5615,,40th & Ames Ave NE,,41.299568,-95.972093,,,,
5616,,40th & Ames Ave SW,,41.299477,-95.972319,,,,
5619,,42nd & Fowler Ave SE,,41.301274,-95.975667,,,,
5621,,42nd & Grand Ave SE,,41.303092,-95.975731,,,,
5623,,42nd & Fontenelle Blvd NE,,41.30745,-95.975706,,,,
5625,,42nd & Jaynes Cr SE,,41.308378,-95.975649,,,,
5628,,42nd & Laurel Ave NE,,41.312231,-95.975635,,,,
5634,,48th & Curtis Ave SW,,41.315675,-95.985472,,,,
5635,,49th & Curtis Ave NE,,41.315932,-95.987647,,,,
5641,,Crown Point & Wenninghoff Rd SW,,41.310859,-96.04603,,,,
5649,,Fort & N Oaks Blvd SW,,41.306585,-96.061526,,,,
5651,,99th/Parkview Dr & Fort NE,,41.306808,-96.066877,,,,
5670,,72nd & Wirt SE,,41.286825,-96.023847,,,,
5681,,85th & Underwood Ave NW,,41.265186,-96.043635,,,,
5684,,19th & Harney SW,,41.256486,-95.94106,,,,
5691,,60th & Grand Ave NW,,41.303183,-96.004747,,,,
5695,,60th & Browne SE,,41.30484,-96.004537,,,,
5704,,56th & Sorensen Pkwy NE,,41.317895,-95.999476,,,,
5709,,24th & Miami NW,,41.283429,-95.947141,,,,
5721,,95th Plz & Burt SW,,41.266888,-96.06091,,,,
5722,,94th & Q St SW,,41.205233,-96.058387,,,,
5723,,Cass & W Dodge Rd NE,,41.263101,-96.046468,,,,
5726,,97th Plz & Nicholas NW,,41.269636,-96.064107,,,,
5729,,88th Plz & W Dodge Rd NW,,41.263471,-96.050229,,,,
5749,,54th & Dodge SW,,41.259552,-95.997531,,,,
5752,,48th & Dodge NE,,41.259724,-95.98536,,,,
5753,,46th & Dodge SW,,41.259629,-95.982807,,,,
5756,,40th & Dodge SE,,41.259624,-95.97332,,,,
5769,,Park Ave & Dodge NE,,41.259828,-95.955744,,,,
5770,,31st Ave & Dodge NE,,41.259806,-95.959013,,,,
5772,,Dodge & Turner Blvd NE,,41.259844,-95.957187,,,,
5784,,25th Ave & Titus Ave NE,,41.320748,-95.949153,,,,
5788,,60th & Q St NE,,41.205336,-96.004544,,,,
5794,,51st & L St SE,,41.212484,-95.994167,,,,
5795,,54th & L St SW,,41.212452,-95.997577,,,,
5804,,30th & Young SE,,41.333385,-95.959453,,,,
5817,,30th & Clay SE,,41.338993,-95.96103,,,,
5818,,30th Ave & McKinley SE,,41.343068,-95.963644,,,,
5821,,31st & Ferry SE,,41.345921,-95.964427,,,,
5854,,39th St & L St NE,,41.212734,-95.970939,,,,
5871,,9th & John Pershing Dr SW,,41.317214,-95.927755,,,,
5892,,20th & California NW,,41.264886,-95.942532,,,,
5896,,20th & Dodge NW,,41.259834,-95.942546,,,,
5899,,30th & Grebe SE,,41.334312,-95.959753,,,,
5903,,13th & Mid City Ave NW,,41.219704,-95.933367,,,,
5905,,84th & Q St NE,,41.205409,-96.042936,,,,
5919,,Ville de Sante Cir NE,,41.313522,-96.008205,,,,
5930,,42nd & Redman Ave NW,,41.309584,-95.975855,,,,
5945,,42nd & Hickory SE,,41.243594,-95.975679,,,,
5948,,17th & Capitol Ave NE,,41.260775,-95.938371,,,,
5973,,30th & Chicago SE,,41.262519,-95.956513,,,,
6071,,51st (Saddle Creek) & Center SW,,41.241246,-95.992541,,,,
6084,,49th & Leavenworth NW,,41.25249,-95.987859,,,,
6095,,52nd & Leavenworth NE,,41.252434,-95.995053,,,,
6120,,58th & Center SW,,41.23779,-96.002742,,,,
6161,,52nd & Benson High NW,,41.286901,-95.995221,,,,
6163,,42nd & Grand Ave SW,,41.303128,-95.975887,,,,
6164,,Fontenelle Blvd & Saratoga NW,,41.304142,-95.978134,,,,
6173,,Roncalli High & Sorensen Pkwy NE,,41.317797,-96.00958,,,,
6176,,120th & I St SE,,41.216129,-96.100583,,,,
6187,,56th & NW Radial Hwy SW,,41.284921,-95.999907,,,,
6191,,72nd & Hamilton SE,,41.272292,-96.023824,,,,
6214,,16th & Fort SE,,41.30658,-95.937206,,,,
6216,,16th & Jaynes SW,,41.308345,-95.937412,,,,
6218,,16th St & John J Persihng Dr SW,,41.317502,-95.93731,,,,
6220,,6300 N 16th SE,,41.31499,-95.937198,,,,
6222,,9th & John Pershing Dr NW,,41.317421,-95.92791,,,,
6236,,117th Ave & Blondo NW,,41.278381,-96.098194,,,,
6250,,120th & Miami SE,,41.282175,-96.100431,,,,
6264,,114th & Davenport NE,,41.260363,-96.090897,,,,
6267,,108th Ave & North Frontage Rd NE,,41.264505,-96.083623,,,,
6279,,108th & (107th) Lafayettte Plz SE,,41.271704,-96.081265,,,,
6287,,110th & Blondo NE,,41.277949,-96.083225,,,,
6291,,108th & Hamilton Plz NW,,41.27246,-96.081436,,,,
6293,,108th Ave & 108th (Burt) SE,,41.267175,-96.08145,,,,
6297,,110th Plz & N Mill Rd NE,,41.2693,-96.085301,,,,
6300,,Blondo & Papillion Pkwy NW,,41.27782,-96.091758,,,,
6303,,70th & L St NE,,41.21268,-96.021724,,,,
6310,,98th & Nicholas SW,,41.268777,-96.065846,,,,
6314,,112th Ct & Blondo NE,,41.2779,-96.088727,,,,
6315,,111th & Blondo SW,,41.277673,-96.085682,,,,
6317,,120th & Stonegate SE,,41.28656,-96.100474,,,,
6321,,108th & Nicholas SE,,41.269543,-96.081257,,,,
6322,,108th & Blondo SW,,41.277629,-96.081481,,,,
6330,,108th & Decatur SE,,41.275936,-96.081223,,,,
6339,,110th & Blondo SW,,41.277687,-96.083486,,,,
6356,,24th & Laurel Ave SE,,41.312224,-95.946842,,,,
6358,,24th & Titus Ave NW,,41.32075,-95.947015,,,,
6362,,29th & Ames Ave SE,,41.299518,-95.955245,,,,
6364,,24th & Bristol NE,,41.289272,-95.946914,,,,
6369,,24th & Dodge NE,,41.259829,-95.94683,,,,
6382,,45th & Center SW,,41.241444,-95.980719,,,,
6392,,10th & Douglas SW,,41.258588,-95.929382,,,,
6413,,13th St & Douglas St SW,,41.258593,-95.933153,,,,
6414,,120th & Q St NW,,41.205423,-96.100702,,,,
6425,,Bellevue Uni. Park & Ride,,41.148634,-95.915665,,,,
6442,,13th & Farnam NE,,41.257639,-95.933115,,,,
6444,,17th & Farnam NE,,41.257723,-95.938365,,,,
6468,,44th & Dodge SE,,41.259617,-95.978463,,,,
6475,,120th & Anne SW,,41.211095,-96.100835,,,,
6476,,112th Ct & Blondo SW,,41.277656,-96.088929,,,,
6504,,42nd & Curtis Ave NW,,41.315851,-95.975835,,,,
6510,,Martin Ave & Newport Ave SE,,41.319953,-95.965442,,,,
6511,,34th & Martin Ave SW,,41.322306,-95.963274,,,,
6512,,Martin Ave & Read NE,,41.32395,-95.958739,,,,
6520,,Minne Lusa Blvd & Martin Ave SW,,41.325157,-95.951025,,,,
6521,,25th Ave & Vane SE,,41.322872,-95.949205,,,,
6536,,42nd & Ames Ave NE,,41.29968,-95.975639,,,,
6547,,132nd & W Center SE,,41.234035,-96.119412,,,,
6558,,Minne Lusa Blvd & Martin Ave NW,,41.325319,-95.951348,,,,
6561,,24th & Kansas Ave SW,,41.313826,-95.947012,,,,
6563,,24th & Himbaugh Ave SE,,41.311107,-95.946816,,,,
6564,,24th & Browne NW,,41.305434,-95.947031,,,,
6585,,72nd & Blondo SE,,41.277722,-96.023806,,,,
6591,,93rd & Burt SW,,41.266859,-96.057413,,,,
6616,,119th & W Center NE,,41.234135,-96.098216,,,,
6625,,97th Ave & W Center NE,,41.234214,-96.064305,,,,
6626,,96th & W Center NE,,41.233867,-96.062121,,,,
6630,,87th & W Center Rd NE,,41.234373,-96.048453,,,,
6631,,87th & W Center Rd SW,,41.234148,-96.048667,,,,
6641,,97th Ave & W Center SW,,41.23406,-96.064412,,,,
6647,,105th Ave & W Center NE,,41.234293,-96.077164,,,,
6680,,48th & Dodge SW,,41.259607,-95.985527,,,,
6691,,36th & Farnam NW,,41.257833,-95.966264,,,,
6696,,31st Ave & Farnam NE,,41.257771,-95.959009,,,,
6697,,30th & Farnam NE,,41.257765,-95.95655,,,,
6702,,15th & Farnam NE,,41.257699,-95.935728,,,,
6714,,17th & Harney SW,,41.256489,-95.938566,,,,
6718,,30th & Webster Plz SE,,41.265796,-95.956485,,,,
6722,,30th & Myrtle NW,,41.270622,-95.956698,,,,
6725,,30th & Charles SE,,41.272783,-95.956488,,,,
6727,,30th & Franklin NW,,41.274746,-95.956671,,,,
6729,,30th & Parker NW,,41.276556,-95.956663,,,,
6731,,30th & Lindsay Ave NE,,41.278366,-95.956476,,,,
6733,,30th & Grant SE,,41.279942,-95.956492,,,,
6734,,30th & Lake NW,,41.281508,-95.956627,,,,
6736,,30th & Miami SE,,41.283192,-95.956475,,,,
6739,,30th & Binney SE,,41.285875,-95.956445,,,,
6741,,30th & Spencer NW,,41.287865,-95.956652,,,,
6744,,30th & Pinkney SE,,41.290431,-95.956455,,,,
6746,,30th & Pratt SE,,41.292232,-95.956447,,,,
6748,,30th & Spaulding NE,,41.294231,-95.956464,,,,
6750,,30th & Sprague NW,,41.296005,-95.956611,,,,
6755,,30th & Fort NW,,41.306746,-95.956658,,,,
6757,,30th & Cuming NW,,41.267993,-95.956573,,,,
6758,,30th & Laurel Ave NW4,,41.312203,-95.956658,,,,
6762,,30th & Curtis Ave NW,,41.315822,-95.956654,,,,
6765,,30th & Newport Ave NW,,41.319451,-95.95665,,,,
6773,,30th & Tucker NW,,41.338183,-95.961028,,,,
6775,,30th & Bondesson NE,,41.340154,-95.961391,,,,
6782,,30th & Tucker SE,,41.338066,-95.960801,,,,
6783,,30th & Clay NW,,41.339119,-95.961293,,,,
6785,,30th & Bondesson NW,,41.340046,-95.961558,,,,
6790,,30th & Ellison Ave NW,,41.309466,-95.956652,,,,
6792,,30th & Stone Ave NW,,41.313544,-95.956613,,,,
6793,,30th & Redick Ave NW,,41.317623,-95.956611,,,,
6795,,30th & Newport Ave SE,,41.319064,-95.956446,,,,
6798,,30th & Vane NW,,41.322971,-95.956766,,,,
6803,,30th & Sheffield NW,,41.330703,-95.958933,,,,
6804,,30th & King SW,,41.331504,-95.959126,,,,
6805,,30th & State SE,,41.336212,-95.960259,,,,
6858,,30th & Scott Cir SW,,41.325879,-95.957537,,,,
6889,,42nd & I St SE,,41.215482,-95.976086,,,,
6891,,45th & Maple NW,,41.285131,-95.9807,,,,
6894,,45th & Center NE,,41.241597,-95.980481,,,,
7000,,30th & Ames Ave NW,,41.299642,-95.956655,,,,
7002,,72nd St & Q St  NE,,41.20532,-96.02368,,,,
7007,,72nd & Military Ave NE,,41.298062,-96.023752,,,,
7014,,Martin Ave & Redick NW,,41.31769,-95.967431,,,,
7023,,Oakview Park & Ride NW,,41.231701,-96.13653,,,,
7026,,Keystone Dr & Blondo SW,,41.277746,-96.044074,,,,
7030,,70th Ave & Maple SW,,41.284965,-96.021633,,,,
7031,,71st & Ames Ave SW,,41.299441,-96.022873,,,,
7039,,60th & Taylor NW,,41.298221,-96.004781,,,,
7047,,38th & Redick Ave (McMilllan) NE,,41.317687,-95.969581,,,,
7052,,69th & Q St SW,,41.205176,-96.019066,,,,
7075,,24th & Poppleton NW,,41.247088,-95.947162,,,,
7103,,13th & 13th Court SE,,41.232391,-95.933271,,,,
7104,,6300 N 16th NW,,41.315422,-95.937509,,,,
7105,,13th & Missouri Ave NW,,41.213014,-95.933391,,,,
7142,,72nd & Military Ave NW,,41.297935,-96.02423,,,,
7146,,Mall of the Bluffs,,41.24994,-95.822728,,,,
7153,,101st & W Center SW,,41.234139,-96.069684,,,,
7161,,Abbott Dr & East Fort SW,,41.306761,-95.908547,,,,
7180,,30th & Grant NW,,41.28005,-95.956623,,,,
7206,,107th (South) & Q St NE,,41.205372,-96.077262,,,,
7208,,14th &  Dodge,,41.259744,-95.934432,,,,
7215,,28th & Farnam NE,,41.257751,-95.95309,,,,
7217,,130th Ave & W Center NE,,41.234175,-96.117397,,,,
7218,,114th & W Center SW,,41.234044,-96.091155,,,,
7221,,Park Ave & Harney SE,,41.256604,-95.955725,,,,
7231,,Washington & Tara Plz MB,,41.165685,-96.042129,,,,
7258,,108th & Cottonwood Ln SE,,41.285985,-96.0813,,,,
7259,,108th & Cottonwood Ln NW,,41.286137,-96.081528,,,,
7266,,108th & Military Rd SE,,41.313843,-96.081343,,,,
7268,,76th & Cass NW,,41.263374,-96.031003,,,,
7272,,24th Ave & Harney NW,,41.256686,-95.947754,,,,
7276,,33rd & Lake SE,,41.281295,-95.961365,,,,
7279,,16th & Cuming NW,,41.268007,-95.937204,,,,
7281,,30th & Potter NW,,41.328822,-95.958379,,,,
7293,,30th & Madison SE,,41.194492,-95.957616,,,,
7319,,41st & Harney SW,,41.257155,-95.974662,,,,
7322,,30th & Drexel SE,,41.192655,-95.957623,,,,
7330,,42nd & Dodge SW,,41.259603,-95.975826,,,,
7331,,42nd & Dodge NE,,41.259756,-95.975683,,,,
7339,,North Omaha Transit Center,,41.298011,-95.957714,,,,
7340,,Crown Tower & Henninger Dr NE,,41.314937,-96.002429,,,,
7348,,85th & Izard NW,,41.268812,-96.044806,,,,
7349,,85th & Hamilton NW,,41.272439,-96.045964,,,,
7350,,23rd & Broadway SW,,41.261834,-95.878481,,,,
7356,,138th & Q St NE,,41.205232,-96.129007,,,,
7358,,St. Gerald's Park & Ride Lot,,41.205252,-96.062095,,,,
7379,,60th & Park Lane Dr NW,,41.306289,-96.004745,,,,
7382,,99th & Redick Ave SW,,41.31774,-96.066298,,,,
7388,,22nd & Cuming SW,,41.267872,-95.94508,,,,
7400,,35th Ave & Dodge SW,,41.259662,-95.965456,,,,
7406,,23rd & Cuming NE,,41.268042,-95.946154,,,,
7407,,27th & Cuming NE,,41.268017,-95.951561,,,,
7419,,60th & Center NE,,41.237948,-96.004675,,,,
7420,,20th & Cuming SW,,41.267866,-95.942502,,,,
7422,,18th & Cuming SE,,41.267869,-95.93965,,,,
7445,,24th Ave & St Marys Ave SW,,41.253832,-95.947617,,,,
7453,,78th & Mercy Rd SW,,41.237735,-96.033554,,,,
7455,,85th & Decatur NW,,41.276047,-96.047123,,,,
7456,,72nd & F St SE,,41.219664,-96.02381,,,,
7471,,27th & Cuming SE,,41.267864,-95.951596,,,,
7472,,25th Ave & Cuming NE,,41.26802,-95.949281,,,,
7486,,24th & Hamilton (Paul) NW,,41.272065,-95.947129,,,,
7487,,Abbott Dr & Ave H NW,,41.281376,-95.910873,,,,
7494,,Abbott Dr & Nakoma Ave SW,,41.289171,-95.902791,,,,
7495,,Abbott Dr & Pratt Ct NW,,41.292296,-95.901971,,,,
7497,,Abbott Dr & Carter Blvd NW,,41.304673,-95.906561,,,,
7517,,4th & Abbott Dr SW,,41.315124,-95.920239,,,,
7521,,16th & Browne NE,,41.304896,-95.937238,,,,
7522,,16th & Carter Blvd SE,,41.303339,-95.937223,,,,
7523,,16th & Fowler Ave SE,,41.301367,-95.937243,,,,
7524,,16th & Ames SE,,41.299566,-95.93724,,,,
7525,,16th & Cornish Blvd SE,,41.297684,-95.937236,,,,
7526,,45th & Bedford Ave NE,,41.288769,-95.980483,,,,
7527,,16th & Sprague SW,,41.295919,-95.937436,,,,
7529,,18th & Sprague SW,,41.295916,-95.940015,,,,
7531,,Florence Blvd & Sprague SW,,41.295914,-95.942259,,,,
7533,,22nd & Sprague SW,,41.295911,-95.944635,,,,
7535,,24th & Sprague SW,,41.295935,-95.947071,,,,
7537,,25th Ave & Sprague SW,,41.295897,-95.949041,,,,
7540,,27th & Sprague SE,,41.295912,-95.951095,,,,
7541,,28th Ave & Sprague SW,,41.29589,-95.954366,,,,
7544,,Eppley Airport Terminal,,41.307392,-95.907365,,,,
7546,,8th & Douglas SW,,41.258501,-95.926709,,,,
7549,,Abbott Dr & Ave H SE,,41.281187,-95.910885,,,,
7550,,Abbott Dr & East Locust SW,,41.284882,-95.90744,,,,
7574,,4th Cir & Abbott Dr NE,,41.315268,-95.920036,,,,
7575,,Abbott Dr & Crown Point (Nogg) NE,,41.316139,-95.923083,,,,
7576,,16th & Browne NW,,41.305049,-95.937418,,,,
7578,,16th & Carter Blvd NW,,41.303509,-95.937427,,,,
7579,,16th & Fowler Ave NW,,41.301528,-95.937435,,,,
7580,,16th & Ames Ave NW,,41.299719,-95.937443,,,,
7581,,16th & Cornish Blvd NW,,41.297846,-95.93744,,,,
7583,,18th & Sprague NE,,41.296078,-95.939836,,,,
7586,,Florence Blvd & Sprague NE,,41.296094,-95.942057,,,,
7588,,22nd & Sprague NE,,41.296073,-95.944469,,,,
7590,,24th & Sprague NE,,41.296071,-95.946821,,,,
7594,,27th & Sprague NE,,41.296047,-95.951166,,,,
7596,,28th Ave & Sprague NE,,41.296044,-95.954032,,,,
7598,,30th & Sprague NE,,41.296041,-95.956396,,,,
7611,,25th & Douglas SW,,41.258612,-95.948307,,,,
7622,,108th & Boyd SW,,41.297626,-96.081515,,,,
7623,,75th & Dorcas (Bergan Mercy) NE,,41.238824,-96.028619,,,,
7624,,Westroads Transit Center,,41.268657,-96.071156,,,,
7633,,61st & Q St NE,,41.205305,-96.006976,,,,
7664,,18th & Cuming NW,,41.268004,-95.939805,,,,
7674,,77th Ave & Cass NE,,41.263378,-96.03382,,,,
7675,,77th Ave & Cass SW,,41.263206,-96.034058,,,,
7676,,78th & Cass NW,,41.263401,-96.035944,,,,
7677,,84th & Cass NE,,41.263405,-96.042853,,,,
7678,,84th & Cass SE,,41.26327,-96.042686,,,,
7680,,85th & Underwood Ave SE,,41.265043,-96.043384,,,,
7682,,85th & Burt SE,,41.266842,-96.043952,,,,
7684,,85th & Izard SE,,41.268687,-96.044543,,,,
7685,,85th & Western Ave SE,,41.270469,-96.045122,,,,
7687,,85th & Hamilton SE,,41.272313,-96.045725,,,,
7688,,85th & Seward SE,,41.274113,-96.046305,,,,
7689,,85th & Decatur SE,,41.275912,-96.046872,,,,
7695,,Lakeside Park & Ride,,41.236806,-96.178627,,,,
7697,,146th & W Center NW,,41.233997,-96.142863,,,,
7717,,60th & Birch NW,,41.290766,-96.004842,,,,
7732,,79th & Maple SW,,41.284974,-96.03597,,,,
7747,,20th & Burt NW,,41.266984,-95.942512,,,,
7754,,Metro Crossing Target,,41.21855,-95.836723,,,,
7757,,62nd & Dodge SE,,41.259598,-96.00802,,,,
7758,,62nd & Dodge NE,,41.259733,-96.008021,,,,
7760,,30th & Dodge NE,,41.260151,-95.956496,,,,
7776,,61st & Q St SW,,41.205142,-96.007143,,,,
7785,,4th & Broadway SE,,41.260559,-95.848874,,,,
7825,,108th & Q St (Bag N' Save) MB,,41.205875,-96.081556,,,,
7830,,103rd & Fort NW,,41.306801,-96.07391,,,,
7835,,72nd & Marian High Rd NW,,41.303203,-96.023972,,,,
7837,,24th & N St SE,,41.209632,-95.946942,,,,
7842,,Benson Park Transit Center,,41.298246,-96.021735,,,,
7843,,67th & Pine NW,,41.243883,-96.014762,,,,
7864,,24th & Q St NW,,41.205696,-95.947339,,,,
7883,,Military Ave & Bedford Ave SE,,41.288605,-96.01016,,,,
7887,,Abbott Dr & Riverfront Dr SW,,41.272783,-95.924848,,,,
7894,,Abbott Dr & Riverfront Dr SE,,41.272684,-95.924788,,,,
7895,,Abbott Dr & Owen Pkwy SE,,41.277285,-95.914853,,,,
7897,,Fontenelle Blvd & Hartman Ave SE,,41.31026,-95.968775,,,,
7899,,Fontenelle Blvd & Laurel SE,,41.312062,-95.968158,,,,
7901,,Fontenelle Blvd & Kansas SE,,41.313863,-95.967673,,,,
7903,,Fontenelle Blvd & Curtis SE,,41.315683,-95.967235,,,,
7905,,Fontenelle Blvd & Kansas Ave NW,,41.314025,-95.967865,,,,
7908,,Fontenelle Blvd & Laurel Ave NW,,41.312215,-95.968362,,,,
7910,,Fontenelle Blvd & Hartman NW,,41.310449,-95.968919,,,,
7923,,165th Ave & W Center NW,,41.234143,-96.172195,,,,
7950,,102nd & Blondo SW,,41.277686,-96.071944,,,,
7951,,72nd & Lake NW,,41.281485,-96.023938,,,,
7952,,72nd & Grant NW,,41.279657,-96.023944,,,,
7953,,90th & W Dodge Rd SE,,41.263286,-96.0524,,,,
7954,,44th & Dodge NW,,41.259769,-95.979132,,,,
7956,,Village Pointe Park & Ride,,41.260374,-96.188651,,,,
7957,,132nd & California,,41.265988,-96.120242,,,,
7958,,First National Bank Park & Ride,,41.264702,-96.13637,,,,
7959,,136th & California,,41.265563,-96.127675,,,,
7960,,137th & First National Bank Pkwy,,41.26614,-96.130661,,,,
7961,,14th & Dodge NW,,41.259807,-95.934634,,,,
7966,,96th & Blondo SW,,41.277726,-96.062252,,,,
7970,,12th & Dodge NW,,41.259747,-95.931914,,,,
7976,,2222 Cuming METRO,,41.267972,-95.944952,,,,
7978,,Bob Kerrey Pedestrian Bridge,,41.267641,-95.925161,,,,
7979,,16th & Douglas SE,,41.258607,-95.937102,,,,
7991,,Mid-America Center,,41.239984,-95.888432,,,,
8023,,72nd & Pine NE,,41.244632,-96.023831,,,,
8024,,72nd & Pine SW,,41.244542,-96.023997,,,,
8027,,24th & Q St NE,,41.205751,-95.946934,,,,
8035,,10th & Cass NW,,41.263828,-95.929487,,,,
8040,,30th & Y St NW,,41.198255,-95.957779,,,,
8069,,42nd & Grover SE,,41.226846,-95.975732,,,,
8070,,42nd & Center SE,,41.241442,-95.975745,,,,
8071,,42nd & Leavenworth NE,,41.252526,-95.975629,,,,
8074,,40th & Cuming SE,,41.267963,-95.972911,,,,
8076,,45th & Bedford Ave SE,,41.288571,-95.980494,,,,
8077,,42nd & Ames Ave SE,,41.299455,-95.975722,,,,
8099,,42nd & Emile NE,,41.254381,-95.975705,,,,
8101,,J Creighton Blvd & Spaulding NW,,41.29421,-95.95915,,,,
8102,,J Creighton Blvd & Pratt NW,,41.2924,-95.95917,,,,
8103,,J Creighton Blvd & Pinkney NW,,41.290572,-95.959177,,,,
8104,,J Creighton Blvd & Bedford NW,,41.288763,-95.958875,,,,
8105,,33rd & Bedford Ave NW,,41.288759,-95.96143,,,,
8106,,36th Ave & Bedford Ave NE,,41.288716,-95.96722,,,,
8108,,38th & Bedford Ave NE,,41.28873,-95.969643,,,,
8109,,Fontenelle Blvd & Bedford Ave NE,,41.288756,-95.982954,,,,
8111,,Fontenelle Blvd & Bedford Ave SW,,41.288603,-95.983121,,,,
8112,,38th & Bedford Ave SW,,41.288595,-95.969786,,,,
8114,,36th Ave & Bedford Ave SW,,41.288571,-95.967374,,,,
8115,,33rd & Bedford Ave SW,,41.288588,-95.961346,,,,
8116,,John Creighton Blvd & Bedford NE,,41.288745,-95.958708,,,,
8117,,John Creighton Blvd & Pinkney SE,,41.290446,-95.958962,,,,
8118,,John Creighton Blvd & Pratt NE,,41.292355,-95.958978,,,,
8119,,John Creighton Blvd & Spaulding NE,,41.294237,-95.958959,,,,
8120,,J Creighton Blvd & Sprague SW,,41.295821,-95.959165,,,,
8127,,84th & F St NE,,41.219996,-96.042987,,,,
8130,,42nd & Mayberry NW,,41.251049,-95.97596,,,,
8131,,42nd & Woolworth Ave NW,,41.245214,-95.975862,,,,
8135,,31st & Ed Creighton Ave SW,,41.239089,-95.957869,,,,
8146,,33rd & Babe Gomez Ave SE,,41.210612,-95.962361,,,,
8198,,33rd & Babe Gomez Ave NE,,41.21081,-95.962612,,,,
8215,,30th & Babe Gomez Ave SE,,41.208604,-95.955155,,,,
8216,,42nd & Sprague NW,,41.296051,-95.975953,,,,
8217,,42nd & Bedford Ave NW,,41.288794,-95.975875,,,,
8218,,45th & Grant/Military Ave NW,,41.279882,-95.980651,,,,
8220,,42nd & F St SE,,41.219652,-95.975738,,,,
8221,,45th & Grant/Military Ave SE,,41.279576,-95.980447,,,,
8222,,45th & Lake SE,,41.281359,-95.980488,,,,
8223,,42nd & Sprague SE,,41.295844,-95.975689,,,,
8242,,34th & Farnam SW,,41.25763,-95.963041,,,,
8243,,32nd Ave & Farnam SW,,41.257634,-95.960428,,,,
8265,,8th & Washington Ave SE,,41.263726,-95.855893,,,,
8266,,8th & Avenue E SE,,41.266022,-95.855894,,,,
8267,,9th & Avenue G NE,,41.268012,-95.857268,,,,
8268,,13th & Avenue G NW,,41.268108,-95.863426,,,,
8269,,16th & Avenue G NE,,41.268071,-95.867078,,,,
8270,,16th & Avenue E NW,,41.266287,-95.867614,,,,
8271,,16th & Avenue B NW,,41.263748,-95.867635,,,,
8272,,16th & Avenue B SE,,41.263541,-95.86742,,,,
8273,,16th & Avenue E SE,,41.26609,-95.867363,,,,
8274,,16th & Avenue G SE,,41.267845,-95.867317,,,,
8275,,13th & Avenue G SW,,41.267865,-95.863498,,,,
8276,,9th & Avenue G SW,,41.267832,-95.857566,,,,
8277,,8th & Avenue E NW,,41.266166,-95.856097,,,,
8278,,8th & Washington Ave NW,,41.264032,-95.85612,,,,
8299,,23rd Ave & 7th SE,,41.239272,-95.854803,,,,
8429,,99th & Laurel Ave NE,,41.31176,-96.066908,,,,
8430,,99th & Military Rd NW,,41.313947,-96.067084,,,,
8431,,99th/Parkview Dr & Fort SE,,41.306574,-96.066852,,,,
8438,,10th & Cass SW,,41.263459,-95.92914,,,,
8453,,10th & Mike Fahey SE,,41.265692,-95.929204,,,,
8457,,10th & Capitol Ave NW,,41.260785,-95.929255,,,,
8461,,74th & Dodge NE,,41.259745,-96.026242,,,,
8462,,75th & Dodge NE,,41.259694,-96.029512,,,,
8463,,76th & Crossroads Transfer Center,,41.261915,-96.03138,,,,
8480,,71st & Dodge MB,,41.259735,-96.022268,,,,
8484,,96th & 800 Block SE,,41.268236,-96.06193,,,,
8489,,42nd & Spaulding NW,,41.294196,-95.9759,,,,
8490,,43rd & Bedford Ave NE,,41.288755,-95.97751,,,,
8491,,44th Ave & Bedford Ave NW,,41.288788,-95.979552,,,,
8492,,42nd & Farnam NE,,41.257829,-95.975702,,,,
8493,,42nd & Hillsdale Ave SW,,41.216392,-95.976219,,,,
8494,,41st & L St SE,,41.212568,-95.973884,,,,
8495,,MCC Exit & Babe Gomez Ave SE,,41.209303,-95.957601,,,,
8496,,EB Gomez Cir & EB Gomez Ave NE,,41.209995,-95.959236,,,,
8497,,35th & L St NW,,41.212337,-95.965072,,,,
8498,,40th & L St NE,,41.212695,-95.973217,,,,
8499,,42nd & K St SE,,41.213447,-95.976247,,,,
8500,,42nd & Hillsdale Ave SE,,41.216644,-95.976005,,,,
8501,,42nd & Dayton SE,,41.217716,-95.975877,,,,
8502,,42nd & Bancroft SE,,41.234193,-95.975739,,,,
8503,,42nd & William NE,,41.246142,-95.975697,,,,
8504,,42nd & Pierce SE,,41.247799,-95.975701,,,,
8505,,43rd & Bedford Ave SW,,41.288647,-95.977725,,,,
8506,,42nd & Spaulding SE,,41.294052,-95.975709,,,,
8507,,Military Ave & Burdette SW,,41.278829,-95.980362,,,,
8508,,10th & Dodge SE,,41.259534,-95.929038,,,,
8509,,10th & Capitol Ave SE,,41.260479,-95.928956,,,,
8510,,20th & Cuming SE,,41.267848,-95.942275,,,,
8511,,29th & Cuming NE,,41.26805,-95.954747,,,,
8513,,Maplewood Blvd & Maple NW,,41.285222,-96.068464,,,,
8514,,102nd & Hamilton SE,,41.271582,-96.071645,,,,
8515,,102nd & Blondo SE,,41.277714,-96.071646,,,,
8516,,102nd & Grant SE,,41.279569,-96.071593,,,,
8517,,102nd & Corby SE,,41.283855,-96.07161,,,,
8518,,88th & Maple SW,,41.284921,-96.048981,,,,
8519,,60th & Maple SE,,41.284842,-96.004598,,,,
8521,,50th & NW Radial Hwy SE,,41.281363,-95.989977,,,,
8522,,40th & Cuming SW,,41.267881,-95.97309,,,,
8523,,36th & Cuming SW,,41.267809,-95.96655,,,,
8524,,29th & Cuming MB,,41.26787,-95.954234,,,,
8525,,24th & Cuming SW,,41.26787,-95.947133,,,,
8526,,16th & Cuming SW,,41.267827,-95.937251,,,,
8528,,10th & Mike Fahey NW,,41.265908,-95.929514,,,,
8529,,Crosswalk & Newport (Immanuel) NW,,41.320326,-96.020384,,,,
8530,,Entrance A & Newport Ave NE,,41.320359,-96.02226,,,,
8531,,72nd & Home Depot Exit NW,,41.301618,-96.023979,,,,
8533,,99th & Masters Elementary NE,,41.308365,-96.066919,,,,
8534,,99th & Hartman Ave NE,,41.309968,-96.066865,,,,
8535,,99th & Walmart Entrance NE,,41.315966,-96.066256,,,,
8536,,99th & Walmart Access Rd MB,,41.316623,-96.066449,,,,
8537,,100th Plz & Military Rd NW,,41.314016,-96.068505,,,,
8538,,90th & Shopping Ctr MB,,41.286354,-96.052747,,,,
8543,,Canfields Plz & W Center Rd SW,,41.234198,-96.046067,,,,
8544,,84th & Frederick NW,,41.229945,-96.043225,,,,
8556,,99th & Park Dr NE,,41.202515,-96.066401,,,,
8557,,99th & Park Dr Apartments SW,,41.202977,-96.064829,,,,
8559,,96th & J St SE,,41.214121,-96.062093,,,,
8561,,Canfield Plz & W Center Rd NW,,41.234343,-96.045614,,,,
8571,,96th & Access Rd (Cuming) NW,,41.268398,-96.062205,,,,
8572,,91st Plz & Burt SE,,41.266883,-96.054776,,,,
8573,,90th & Blondo SE,,41.277711,-96.052524,,,,
8575,,90th & Shopping Center Exit SE,,41.286841,-96.05251,,,,
8576,,108th & Fort NE,,41.306748,-96.081302,,,,
8577,,100th Plz & Military Rd SW,,41.313854,-96.068481,,,,
8578,,99th & Kansas Plz SW,,41.312912,-96.067068,,,,
8579,,99th & Hartman Ave SW,,41.309752,-96.067091,,,,
8580,,99th & Masters Elem. NW,,41.308545,-96.067075,,,,
8581,,90th & Shopko Exit SE,,41.309477,-96.052557,,,,
8582,,89th & Military Rd SW,,41.310469,-96.051414,,,,
8583,,Blair High Rd & Military Rd SW,,41.310926,-96.048359,,,,
8584,,Northwest High & Crown Point SW,,41.312161,-96.043264,,,,
8588,,Military Ave & Skyline Manor MB,,41.2985,-96.02576,,,,
8589,,72nd & Marian High Rd NE,,41.303203,-96.023721,,,,
8590,,72nd & Crown Point Center NB,,41.31535,-96.023701,,,,
8593,,Roncalli High & Sorensen Pkwy SW,,41.317517,-96.009758,,,,
8594,,45th & Curtis Ave SE,,41.315673,-95.980468,,,,
8595,,44th & Curtis Ave SE,,41.315668,-95.978032,,,,
8596,,42nd & Curtis Ave SW,,41.315671,-95.975834,,,,
8599,,26th & Q St SW,,41.20554,-95.950057,,,,
8605,,24th & Vinton SW,,41.229269,-95.947173,,,,
8610,,24th & Vinton NE,,41.229549,-95.946923,,,,
8619,,69th & Military Ave NE,,41.294929,-96.018549,,,,
8620,,Military Ave & Templeton Dr SW,,41.302518,-96.033761,,,,
8621,,88th & Fort NE,,41.306818,-96.049598,,,,
8625,,108th & Fort SW,,41.30645,-96.081504,,,,
8626,,108th & Corby NW,,41.284309,-96.08152,,,,
8627,,108th & Lake NW,,41.281464,-96.081473,,,,
8628,,108th & Burdette NW,,41.279717,-96.081513,,,,
8629,,102nd & Blondo SW,,41.277723,-96.071885,,,,
8630,,108th & Burdette SE,,41.279556,-96.081238,,,,
8631,,108th & Lake SE,,41.281321,-96.081281,,,,
8632,,108th & Corby SE,,41.28413,-96.081269,,,,
8636,,90th & Fort SW,,41.306604,-96.052761,,,,
8637,,88th & Fort SW,,41.306592,-96.04986,,,,
8638,,67th Ave & Military Ave SW,,41.293789,-96.016778,,,,
8639,,69th & Military Ave SE,,41.29483,-96.018799,,,,
8641,,Military Ave & Bedford Ave NW,,41.288722,-96.010364,,,,
8661,,Riverfront Dr & US Forestry NW,,41.265507,-95.925778,,,,
8662,,Riverfront Dr & Ricks Boatyard NW,,41.261627,-95.924483,,,,
8663,,8th & Riverfront Dr NE,,41.259572,-95.926508,,,,
8664,,10th & Capitol Ave NE,,41.260632,-95.929111,,,,
8666,,13th & Capitol Ave NE,,41.260718,-95.933073,,,,
8668,,38th Ave & Leavenworth NE,,41.252452,-95.970427,,,,
8669,,46th Ave & Leavenworth NE,,41.252488,-95.982955,,,,
8673,,Pine & Mammel Hall,,41.243825,-96.016706,,,,
8674,,Pine & Aksarben Dr NE,,41.243822,-96.018746,,,,
8677,,73rd & Mercy Rd NE,,41.237956,-96.025933,,,,
8678,,75th & Mercy Rd NW,,41.237978,-96.028795,,,,
8679,,Mercy Rd Entrance NE,,41.237999,-96.031897,,,,
8686,,72nd & Pine SE,,41.244524,-96.023556,,,,
8687,,Pine & Aksarben Dr SW,,41.243713,-96.018889,,,,
8688,,Pine & Scott Tech Center SE,,41.243699,-96.016956,,,,
8689,,67th & Pine NE,,41.243883,-96.014511,,,,
8696,,60th & Mason NE,,41.249762,-96.004698,,,,
8697,,Happy Hollow & Leavenworth SW,,41.252324,-96.001759,,,,
8698,,52nd & Leavenworth SW,,41.252316,-95.995232,,,,
8699,,50th & Leavenworth SW,,41.252342,-95.990269,,,,
8700,,Saddle Creek & Leavenworth SW,,41.252359,-95.985198,,,,
8701,,46th Ave & Leavenworth SW,,41.252353,-95.983062,,,,
8702,,45th & Leavenworth SW,,41.252357,-95.980676,,,,
8703,,43rd & Leavenworth SW,,41.252352,-95.97749,,,,
8704,,36th & Leavenworth SW,,41.252332,-95.966239,,,,
8705,,33rd & Leavenworth SW,,41.252329,-95.961454,,,,
8706,,31st & Leavenworth SE,,41.25236,-95.958591,,,,
8707,,8th & Riverfront Dr SE,,41.259455,-95.926472,,,,
8708,,Riverfront Dr & Ricks Boatyard SE,,41.261573,-95.924244,,,,
8709,,Riverfront Dr & US Forestry SE,,41.265129,-95.925587,,,,
8710,,72nd & M St SW,,41.210596,-96.023876,,,,
8712,,64th (Horsemans Park) & Q St SW,,41.205116,-96.012055,,,,
8714,,13th & Leavenworth NW,,41.252344,-95.933284,,,,
8715,,13th & Deer Park Blvd NW,,41.227871,-95.933406,,,,
8716,,13th & Bert Murphy NW,,41.22363,-95.933386,,,,
8717,,16th & Missouri Ave NE,,41.21301,-95.936825,,,,
8718,,18th & Missouri Ave NE,,41.21299,-95.939281,,,,
8719,,23rd & L St NE,,41.212298,-95.945504,,,,
8720,,30th & Livestock Ex. Bldg NW,,41.209865,-95.955169,,,,
8721,,64th (Horsemans Park) & Q St NE,,41.205315,-96.011698,,,,
8722,,69th & Q St NE,,41.205329,-96.018935,,,,
8724,,72nd & M St SE,,41.210579,-96.023721,,,,
8725,,67th & Center NE,,41.237897,-96.013777,,,,
8726,,67th & Mercy Rd NW,,41.238912,-96.014866,,,,
8727,,College of St. Marys & Mercy Rd NE,,41.238064,-96.020803,,,,
8728,,Big Papio Trail & W Center NW,,41.233889,-96.056324,,,,
8729,,Paddock & W Center NE,,41.233588,-96.058029,,,,
8730,,122nd Ave & W Center NE,,41.234074,-96.104395,,,,
8731,,148th & W Center NW,,41.23414,-96.14649,,,,
8732,,148th Ave & W Center NW,,41.234127,-96.147861,,,,
8733,,W Center & Industrial Rd NE,,41.233487,-96.154073,,,,
8734,,W Center & Industrial Rd NW,,41.233585,-96.154335,,,,
8735,,156th & W Center NW,,41.234058,-96.158966,,,,
8736,,158th Plz & W Center NE,,41.234055,-96.162723,,,,
8737,,160th & W Center NW,,41.234066,-96.165252,,,,
8744,,165th Ave & W Center SE,,41.233929,-96.171752,,,,
8745,,160th & W Center SE,,41.233887,-96.164941,,,,
8746,,156th & W Center SW,,41.233905,-96.159001,,,,
8747,,148th Ave & W Center SE,,41.233954,-96.148469,,,,
8748,,148th & W Center SE,,41.233871,-96.146071,,,,
8749,,146th & W Center SE,,41.233791,-96.142456,,,,
8750,,144th & W Center SE,,41.233776,-96.13846,,,,
8751,,135th Ave & W Center SW,,41.233967,-96.124577,,,,
8752,,105th Ave & W Center SW,,41.234167,-96.077259,,,,
8753,,Big Papio Trail & W Center SW,,41.233837,-96.055513,,,,
8754,,Big Papio Trail & W Center SE,,41.234064,-96.054273,,,,
8755,,90th & W Center SW,,41.234139,-96.05289,,,,
8756,,82nd Ave & W Center SW,,41.234182,-96.040759,,,,
8757,,80th & W Center SE,,41.234191,-96.036178,,,,
8758,,78th & Mercy Rd SE,,41.237834,-96.0334,,,,
8759,,College of St. Marys & Mercy Rd SW,,41.237821,-96.021041,,,,
8760,,67th & Mercy Rd SW,,41.238796,-96.014639,,,,
8762,,33rd & Farnam SW,,41.25765,-95.96149,,,,
8763,,84th & Grover NW,,41.227883,-96.04323,,,,
8766,,94th & Q St NE,,41.205432,-96.058102,,,,
8770,,S St & Boulder Creek NE,,41.203917,-96.135379,,,,
8772,,Harry Andersen Ave & Q St NE,,41.205234,-96.118026,,,,
8775,,136th (North) & Q St SW,,41.205107,-96.121805,,,,
8776,,Harry Andersen Ave & Q St SE,,41.205091,-96.117822,,,,
8777,,129th/Deauville Dr & Q St SW,,41.205087,-96.115724,,,,
8778,,124th/Oakair Dr & Q St SW,,41.205127,-96.107569,,,,
8779,,Q St & Magnolia SW,,41.205178,-96.104982,,,,
8780,,116th & I St SW,,41.216141,-96.095932,,,,
8781,,108th & John Galt Blvd SW,,41.210071,-96.081526,,,,
8782,,107th & Q St SE,,41.205246,-96.077118,,,,
8783,,105th & Q St SW,,41.205236,-96.073613,,,,
8784,,101st Plz & Q St SE,,41.205242,-96.070763,,,,
8787,,84th & Park Dr NE,,41.200907,-96.042896,,,,
8788,,84th & H St SE,,41.21752,-96.04305,,,,
8789,,84th & F St NE,,41.219996,-96.042975,,,,
8790,,84th & W Center SE,,41.234195,-96.042977,,,,
8793,,14th & John Pershing Dr SW,,41.317441,-95.934766,,,,
8794,,12th & John Pershing Dr SW,,41.317472,-95.931147,,,,
8795,,Nogg & Abbott Dr SW,,41.316595,-95.925544,,,,
8797,,21th & East Locust NW,,41.284993,-95.90368,,,,
8798,,Abbott Dr & Owen Pkwy NW,,41.277465,-95.914878,,,,
8800,,Abbott Dr & East Locust SE,,41.284846,-95.90713,,,,
8801,,20th & East Locust SW,,41.284821,-95.904647,,,,
8804,,12th & John Pershing NE,,41.317725,-95.930813,,,,
8805,,14th & John Pershing Dr NE,,41.317748,-95.93442,,,,
8806,,16th & Sprague NW,,41.296081,-95.937675,,,,
8807,,72nd & Lawndale SW,,41.297071,-96.023952,,,,
8808,,72nd & Burt SE,,41.266728,-96.02383,,,,
8809,,60th & Ames Ave SW,,41.29941,-96.004784,,,,
8810,,Taylor & Ames Ave SW,,41.299421,-96.003184,,,,
8811,,56th & Ames Ave SW,,41.299471,-96.000462,,,,
8812,,55th & Ames Ave SW,,41.299492,-95.998408,,,,
8813,,51st (Bakers) & Ames Ave SW,,41.299528,-95.993071,,,,
8814,,50th & Ames Ave SW,,41.299541,-95.990313,,,,
8815,,49th & Ames Ave SW,,41.299546,-95.98734,,,,
8820,,108th Ct & Mill Valley SE,,41.266809,-96.083919,,,,
8824,,Davenport & Atrium Plz NW,,41.260576,-96.08875,,,,
8825,,114th & W Dodge SE,,41.262966,-96.090896,,,,
8836,,114th & W Dodge Rd SW,,41.262875,-96.091122,,,,
8837,,114th & Davenport SE,,41.260238,-96.090801,,,,
8838,,11213 Davenport EB,,41.260459,-96.088677,,,,
8839,,Davenport & S Frontage Rd SE,,41.262102,-96.086894,,,,
8840,,South Frontage Rd SW,,41.262019,-96.083815,,,,
8841,,108th Ave & 108th Ct NE,,41.265559,-96.083436,,,,
8842,,24th & Cuming SE,,41.267906,-95.946942,,,,
8843,,30th & Martin Ave SE,,41.324412,-95.956936,,,,
8844,,24th & Fort NW,,41.306722,-95.947022,,,,
8845,,24th & Sprague NW,,41.29607,-95.947059,,,,
8846,,24th & Dodge NW,,41.259829,-95.946973,,,,
8847,,Malcolm X Ave & Bedford Ave NE,,41.288757,-95.96359,,,,
8848,,51st & Bedford Ave NE,,41.288742,-95.992671,,,,
8852,,51st & Bedford Ave SE,,41.288598,-95.992599,,,,
8853,,Malcolm X Ave & Bedford Ave SE,,41.288585,-95.963566,,,,
8854,,John Creighton Blvd & Sprague SE,,41.295858,-95.95895,,,,
8855,,32nd & Sorensen Pkwy NE,,41.303599,-95.960222,,,,
8861,,30th & Martin Ave SW,,41.32433,-95.957103,,,,
8877,,32nd Ave & Vinton NW,,41.229559,-95.96052,,,,
8878,,Ed Creighton Ave & Park Ave NE,,41.239226,-95.955758,,,,
8879,,Pacific & Park Ave SE,,41.248726,-95.955719,,,,
8880,,Park Ave & Mason SE,,41.250679,-95.955771,,,,
8881,,30th & California NW,,41.264869,-95.956793,,,,
8882,,(35th) Salem Village & Lake NE,,41.281462,-95.964899,,,,
8883,,36th & Ruggles SE,,41.294948,-95.966028,,,,
8884,,36th & Sprague SE,,41.295839,-95.966066,,,,
8885,,36th & Sprague SW,,41.295812,-95.966186,,,,
8886,,36th & Ruggles NW,,41.295056,-95.966184,,,,
8888,,40th & Lake NW,,41.281496,-95.972395,,,,
8889,,(35th) Salem Village & Lake SW,,41.281317,-95.965042,,,,
8890,,33rd & Burt NW,,41.266978,-95.961619,,,,
8902,,60th & Ames Ave NW,,41.299581,-96.004773,,,,
8903,,60th & Catholic Charities NW,,41.288641,-96.004908,,,,
8904,,72nd & Blondo NE,,41.277857,-96.023735,,,,
8905,,85th & Western Ave NW,,41.270621,-96.045361,,,,
8906,,80th & Cass NE,,41.263396,-96.038343,,,,
8907,,70th Ave & Blondo SW,,41.277726,-96.021526,,,,
8908,,69th & Blondo SW,,41.277703,-96.019175,,,,
8910,,60th & Catholic Charities SE,,41.288344,-96.004644,,,,
8911,,60th & Pinkney SE,,41.290343,-96.004614,,,,
8912,,60th & Pratt SE,,41.292198,-96.004632,,,,
8913,,60th & Spaulding SE,,41.294008,-96.004613,,,,
8914,,60th & Sprague SE,,41.295809,-96.004606,,,,
8915,,60th & Taylor SE,,41.298069,-96.004577,,,,
8916,,60th & Hartman Ave SE,,41.31026,-96.004517,,,,
8917,,60th & Hartman Ave SW,,41.310251,-96.004768,,,,
8920,,Crown Tower & Henninger Dr SE,,41.314802,-96.002369,,,,
8928,,56th & Northampton Blvd SW,,41.3154,-95.999875,,,,
8932,,Fontenelle Blvd & Grande Ave SE,,41.303152,-95.977964,,,,
8933,,40th & Grand Ave SW,,41.302899,-95.972244,,,,
8937,,9300 J St NE,,41.214296,-96.056442,,,,
8938,,96th & J St NE,,41.214302,-96.06207,,,,
8948,,10400 I St SE,,41.216116,-96.076125,,,,
8949,,102nd & I St SW,,41.216125,-96.07213,,,,
8950,,9800 I St SE,,41.216137,-96.066644,,,,
8951,,96th & I St SW,,41.216147,-96.062435,,,,
8952,,94th & J St SW,,41.214093,-96.05879,,,,
8953,,93rd & J St SE,,41.214098,-96.056155,,,,
8975,,84th & Q St SW,,41.205202,-96.043126,,,,
8979,,84th & Giles Rd SW,,41.176172,-96.043167,,,,
8981,,Washington & Cary SE,,41.172544,-96.042975,,,,
8983,,84th & Brentwood Dr NE,,41.179937,-96.042882,,,,
8985,,84th & Q St SE,,41.205238,-96.042923,,,,
9006,,Q St & Millard South High NE,,41.205463,-96.145783,,,,
9008,,153rd & Weir Park & Ride,,41.206231,-96.154241,,,,
9010,,90th & Blondo NE,,41.277909,-96.052489,,,,
9011,,Manderson & Terrace Dr SE,,41.292697,-96.067753,,,,
9012,,Ruggles & Terrace Dr SE,,41.294848,-96.067941,,,,
9013,,Sahler & Terrace Dr NE,,41.296739,-96.06796,,,,
9014,,Park View Dr & Ames Ave SW,,41.299131,-96.065092,,,,
9015,,Park View Dr & Fowler SE,,41.301094,-96.065183,,,,
9016,,Park View Dr & Grand SE,,41.302739,-96.066336,,,,
9017,,Park View Dr & Redman SE,,41.304378,-96.066354,,,,
9018,,Park View Dr & Camden SE,,41.305908,-96.066432,,,,
9019,,120th & Miami NE,,41.282274,-96.100456,,,,
9020,,Park View Dr & Redman NW,,41.304584,-96.06657,,,,
9021,,Park View Dr & Grand NW,,41.302883,-96.066551,,,,
9022,,Park View Dr & Fowler NW,,41.30112,-96.06547,,,,
9023,,Park View Dr & Ames Ave NW,,41.299257,-96.065116,,,,
9024,,Ames Ave & Terrace Dr NE,,41.299253,-96.066955,,,,
9025,,Sahler & Terrace Dr SW,,41.296576,-96.06821,,,,
9026,,Ruggles & Terrace Dr NW,,41.294938,-96.068192,,,,
9027,,Manderson & Terrace Dr NW,,41.292822,-96.067945,,,,
9028,,Pinkney & Terrace Dr NW,,41.29042,-96.067136,,,,
9029,,Maplewood & Terrace Dr NW,,41.289262,-96.065508,,,,
9030,,14th & Broadway SW,,41.261832,-95.864758,,,,
9031,,12th & Broadway SW,,41.261788,-95.861906,,,,
9032,,10th & Broadway SW,,41.261798,-95.859006,,,,
9033,,Iowa Western Community College,,41.270847,-95.80163,,,,
9034,,8th & Broadway NE,,41.261962,-95.855916,,,,
9044,,Marketplace,,41.228789,-95.87908,,,,
9052,,52nd & Hartman Ave NE,,41.310447,-95.994893,,,,
9056,,44th & Redman Ave NE,,41.310489,-95.978699,,,,
9057,,Redman Ave & Brickstone Appts. NE,,41.310891,-95.980898,,,,
9058,,46th & Redman Ave NW,,41.310591,-95.983226,,,,
9059,,Hartman Ave & Golden Living Ctr. NW,,41.310434,-95.985912,,,,
9060,,49th & Hartman Ave NW,,41.310439,-95.988038,,,,
9061,,50th Ave & Hartman Ave NE,,41.310452,-95.991453,,,,
9070,,50th Ave & Hartman Ave SW,,41.310245,-95.991477,,,,
9071,,49th & Hartman Ave SW,,41.310204,-95.988658,,,,
9072,,Hartman Ave & Golden Living Ctr MB,,41.310191,-95.985697,,,,
9073,,46th & Redman Ave SW,,41.31042,-95.983118,,,,
9074,,Redman Ave & Brickstone Appts. MB,,41.31072,-95.980718,,,,
9075,,44th & Redman Ave SW,,41.310363,-95.978902,,,,
9076,,42nd & Redman Ave SW,,41.309422,-95.975843,,,,
9078,,32nd & Sorensen Pkwy SW,,41.303563,-95.960484,,,,
9079,,Kanesville Blvd & Railroad Ave SW,,41.277736,-95.807764,,,,
9080,,35th Ave & Power Dr SW,,41.225139,-95.845074,,,,
9081,,35th Ave & Metro Dr SW,,41.223979,-95.838693,,,,
9082,,Lake Manawa Inn NE,,41.219741,-95.857295,,,,
9083,,30th Ave & Dial Dr SE,,41.230558,-95.848714,,,,
9084,,32nd Ave & Manawa Centre Dr SW,,41.227749,-95.847711,,,,
9085,,Mid America Dr MB,,41.233484,-95.886552,,,,
9086,,Social Security offc. & Bass Pro NE,,41.237,-95.89382,,,,
9089,,72nd & Crown Point Ave NW,,41.312853,-96.025173,,,,
9090,,74th Ct & Crown Point Ave NE,,41.312855,-96.028864,,,,
9091,,Sitel & Crown Point Ave NE,,41.31285,-96.031419,,,,
9092,,Sitel & Crown Point Ave SW,,41.312634,-96.031622,,,,
9093,,74th Ct & Crown Point Ave SW,,41.312638,-96.029138,,,,
9094,,36th & Broadway SW,,41.261825,-95.904674,,,,
9095,,24th & Broadway SW,,41.26186,-95.879639,,,,
9096,,6th & Broadway SW,,41.261171,-95.852096,,,,
9097,,Metro Dr Midblock,,41.221287,-95.838143,,,,
9098,,24th & Broadway NE,,41.262031,-95.879448,,,,
9099,,26th & Broadway NE,,41.262082,-95.884221,,,,
9100,,36th & Broadway NE,,41.262014,-95.904555,,,,
9101,,Valley View Dr midblock,,41.264806,-95.804149,,,,
9102,,Valley View Dr & McPherson Ave NE,,41.260772,-95.80557,,,,
9103,,6th & Broadway NE,,41.261288,-95.851798,,,,
9105,,40th & Pinkney NW,,41.290528,-95.97219,,,,
9106,,40th & Bedford Ave NW,,41.288691,-95.972198,,,,
9107,,40th & Pinkney SE,,41.290411,-95.97207,,,,
9110,,84th & W Dodge NE,,41.261856,-96.042753,,,,
9111,,84th & W Dodge SE,,41.26164,-96.042811,,,,
9112,,74th & Dodge SW,,41.259555,-96.026981,,,,
9113,,16th & Dodge  SW,,41.259606,-95.937319,,,,
9117,,16th & Jackson SE,,41.254393,-95.937094,,,,
9126,,84th & Harrison SW,,41.190471,-96.04305,,,,
9127,,14th & California SW,,41.264723,-95.934512,,,,
9128,,17th & Davenport SE,,41.261586,-95.938433,,,,
9129,,17th & Cass SE,,41.263468,-95.938412,,,,
9130,,17th & California NE,,41.264854,-95.938391,,,,
9131,,16th & Mike Fahey SE,,41.265801,-95.937056,,,,
9132,,15th & Mike Fahey SW,,41.265793,-95.935839,,,,
9149,,108th Ave & 108th Ct NW,,41.265504,-96.083663,,,,
9151,,109th Plz & N Mill Rd NW,,41.269294,-96.083774,,,,
9158,,102nd & Blondo NW,,41.278037,-96.072029,,,,
9173,,14th & Farnam NW,,41.257664,-95.934654,,,,
9175,,14th & Howard NW,,41.25553,-95.934627,,,,
9176,,24th & Woolworth NW,,41.245432,-95.94711,,,,
9177,,24th Hickory NW,,41.243469,-95.947095,,,,
9179,,"24th & ""L"" St.  SE",,41.212099,-95.946863,,,,
9180,,24th & Hickory  NE,,41.243487,-95.946868,,,,
9182,,Military Ave & Pinkney SW,,41.290359,-96.011264,,,,
9184,,52nd & Benson High SE,,41.286658,-95.994922,,,,
9189,,72nd & Grover St  NE,,41.227209,-96.023798,,,,
9190,,72nd & Q St  SE,,41.205195,-96.023441,,,,
9193,,60th & L St SE,,41.212343,-96.003324,,,,
9194,,33rd & Ed Gomez,,41.210684,-95.962635,,,,
9200,,30th & Y St.  SE,,41.198093,-95.957588,,,,
9202,,110th & J St SE,,41.214216,-96.083868,,,,
9205,,16th & Cass St. SE,,41.263667,-95.937064,,,,
9206,,16th & Mike Fahey St NW,,41.265873,-95.937164,,,,
9207,,16th & Cass NW,,41.263766,-95.937172,,,,
9212,,61st & NW Radial NE,,41.286845,-96.007123,,,,
9213,,61st & NWRadial SW,,41.286683,-96.007301,,,,
9214,,60th & NWRadial SW,,41.286606,-96.004878,,,,
9216,,28th & Q St NW,,41.205669,-95.954695,,,,
9217,,Fontenelle & Camden2,,41.305799,-95.977935,,,,
9218,,Fontenelle & Fort2,,41.306628,-95.977543,,,,
9226,,111th & Q St NE,,41.205497,-96.085191,,,,
9228,,42nd & Harney SE,,41.257226,-95.975724,,,,
9230,,40th & Farnam SW,,41.257724,-95.973375,,,,
9231,,38th ST. & Farnam,,41.257712,-95.969139,,,,
9232,,16th & Dodge NE,,41.259732,-95.937164,,,,
9233,,20th & Cass NE,,41.263823,-95.942315,,,,
9234,,20th & California NE,,41.264859,-95.942353,,,,
9235,,20th & Burt SE,,41.266831,-95.942333,,,,
9236,,20th & Nicholas SE,,41.269937,-95.94228,,,,
9237,,20th & Paul SE,,41.27163,-95.942259,,,,
9238,,20th & Charles SE,,41.275204,-95.942254,,,,
9239,,27th & Douglas SW,,41.25868,-95.951899,,,,
9241,,78th & Dodge SW,,41.259484,-96.035787,,,,
9242,,72nd & Dodge SW,,41.259569,-96.024118,,,,
9243,,15th & Douglas SE,,41.258608,-95.935778,,,,
9244,,20th & Cuming NE,,41.268001,-95.942323,,,,
9245,,52nd & Kansas Ave SW,,41.31385,-95.995189,,,,
9246,,13th & Jackson SW,,41.254316,-95.933348,,,,
9247,,13 & Farnam SE,,41.25754,-95.933127,,,,
9248,,58th & NW Radial Hwy NW,,41.285278,-96.002224,,,,
9249,,58th & NW Radial SW,,41.285179,-96.002331,,,,
9250,,56th & NW Radial SW,,41.284885,-95.999943,,,,
9251,,54th & NW Radial SW,,41.284907,-95.997591,,,,
9253,,42nd & Popleton NW,,41.247006,-95.975854,,,,
9254,,42nd & Popleton SE,,41.246907,-95.975723,,,,
9255,,72nd & Dodge NE,,41.259903,-96.023761,,,,
9256,,24th & Martha SE,,41.238094,-95.946893,,,,
9257,,24th & Howard SE,,41.255381,-95.946809,,,,
9258,,87th & Q St NE,,41.205471,-96.048123,,,,
9259,,89th & Q St NE,,41.205374,-96.051222,,,,
9260,,114th & Q St NW,,41.205395,-96.090389,,,,
9261,,25th & Vinton NW,,41.229592,-95.948593,,,,
9262,,Hanscom Blvd & Vinton Ne,,41.22949,-95.958301,,,,
9263,,Hanscom Blvd & Vinton SW,,41.229436,-95.957955,,,,
9264,,25th & Vinton SE,,41.229439,-95.948449,,,,
9265,,62nd & Pacific NE,,41.248838,-96.007666,,,,
9266,,Elmwood Park Dr & Pacific NW,,41.248865,-96.013357,,,,
9267,,67th & Pacific SW,,41.248653,-96.015659,,,,
9268,,67th & Pacific SE,,41.248609,-96.015432,,,,
9269,,64th & Pacific SW,,41.248669,-96.011973,,,,
9270,,62nd & Pacific SW,,41.248667,-96.007868,,,,
9271,,60th & Pacific NE,,41.248825,-96.004671,,,,
9272,,87th & Q St SW,,41.20529,-96.048372,,,,
9273,,84th & L St SE,,41.212433,-96.042818,,,,
9274,,79th & L St SE,,41.212409,-96.036617,,,,
9275,,Big Papio Trail & L St SE,,41.212419,-96.031704,,,,
9277,,79th & L St NE,,41.212625,-96.036641,,,,
9278,,84th & L St NW,,41.212576,-96.043128,,,,
9279,,90th & K St SE,,41.213097,-96.052467,,,,
9280,,40th & Farnam SE,,41.257752,-95.973304,,,,
9281,,42nd & Farnam SW,,41.257766,-95.975809,,,,
9282,,67th Plz & Newport SE,,41.319287,-96.017204,,,,
9285,,V.A. Hospital,,41.242877,-95.973291,,,,
9286,,V.A.Hospital,,41.243075,-95.973077,,,,
9288,,No Frills,,41.14056,-95.912484,,,,
9289,,Lied Center,,41.142255,-95.928591,,,,
9290,,Marthon Ventures,,41.176294,-95.925946,,,,
9291,,13th & J St SW,,41.214644,-95.933406,,,,
